name,amenity,country,iso3,source,latitude,longitude,operator,addr_city,building
École Nazemsé,school,Burkina Faso,BFA,OSM,12.32337,-1.52261,,,
Accart-Ville Sud,school,Burkina Faso,BFA,OSM,11.18194,-4.3115,,,
College de Tounouma,school,Burkina Faso,BFA,OSM,11.17983,-4.28355,,,
Lycée technique Jean-paul II,school,Burkina Faso,BFA,OSM,12.36211,-1.48298,,,
ISIG INTERNATIONAL Annexe,university,Burkina Faso,BFA,OSM,12.36922,-1.49794,,,
Ecole,school,Burkina Faso,BFA,OSM,12.81289,-1.63216,,,
Ecole,school,Burkina Faso,BFA,OSM,12.78536,-1.63328,,,
Ecole Nationale des Eaux et Forêts,college,Burkina Faso,BFA,OSM,11.22373,-4.43269,,,
Ecole primaire française Saint-Exupéry,school,Burkina Faso,BFA,OSM,12.37042,-1.51785,,,
Gueswende Bala A et B,school,Burkina Faso,BFA,OSM,12.31915,-1.52224,,,
Lycée Technique de Ouagadougou,school,Burkina Faso,BFA,OSM,12.3819,-1.49768,,,
ENAM,school,Burkina Faso,BFA,OSM,12.37883,-1.50604,,,
Lycée privé Daroul (education islamique),school,Burkina Faso,BFA,OSM,12.36332,-1.55348,,,
Centre de Formation Professionnelle de Référence de Ziniaré,school,Burkina Faso,BFA,OSM,12.57542,-1.3316,,,
Ecole du Village-Opéra,school,Burkina Faso,BFA,OSM,12.54381,-1.28099,,,
Université Nazi Boni,university,Burkina Faso,BFA,OSM,11.20926,-4.41761,,,
École primaire de Yikiemdin,school,Burkina Faso,BFA,OSM,12.51617,-2.16753,,,
École primaire de Rakalo,school,Burkina Faso,BFA,OSM,12.45932,-2.21309,,,
École primaire de Pamanogo,school,Burkina Faso,BFA,OSM,12.47159,-2.15873,,,
École primaire de Nabzinigma,school,Burkina Faso,BFA,OSM,12.62542,-2.00936,,,
École primaire de Sibou,school,Burkina Faso,BFA,OSM,12.693,-2.04652,,,
École primaire de Gouroumbila,school,Burkina Faso,BFA,OSM,12.69332,-2.21974,,,
École primaire de Zimidin Soaw,school,Burkina Faso,BFA,OSM,12.50017,-2.19114,,,
École primaire de Yargo,school,Burkina Faso,BFA,OSM,12.51821,-2.2085,,,
École primaire de Bokin,school,Burkina Faso,BFA,OSM,12.53957,-2.21932,,,
Institut technique et commercial Akpode (ITCA),college,Burkina Faso,BFA,OSM,12.37953,-1.48762,,,
École primaire de Soaw,school,Burkina Faso,BFA,OSM,12.51995,-2.18346,,,
École primaire de Bagandé,school,Burkina Faso,BFA,OSM,12.5702,-2.06391,,,
École primaire Goala B,school,Burkina Faso,BFA,OSM,12.53636,-2.10388,,,
École primaire de Somassi,school,Burkina Faso,BFA,OSM,12.58452,-2.08934,,,
École primaire de Mara Pella,school,Burkina Faso,BFA,OSM,12.53915,-2.07989,,,
École primaire de Daboala,school,Burkina Faso,BFA,OSM,12.63099,-2.03118,,,
École primaire de Séguédin Soaw,school,Burkina Faso,BFA,OSM,12.48948,-2.2405,,,
École Primaire Sainte-Anne,school,Burkina Faso,BFA,OSM,12.69543,-2.19598,,,
Lycée professionnel agricole,school,Burkina Faso,BFA,OSM,12.69977,-2.19944,,,
Université Saint Thomas d’Aquin (USTA),university,Burkina Faso,BFA,OSM,12.38411,-1.41844,,,
Ecole du château,school,Burkina Faso,BFA,OSM,12.35448,-1.482,,,
Ecole du château,school,Burkina Faso,BFA,OSM,12.35477,-1.48175,,,
Ecole du château,school,Burkina Faso,BFA,OSM,12.35492,-1.48162,,,
Schule B,school,Burkina Faso,BFA,OSM,12.02391,-3.61582,,,
Lycée Promotion,college,Burkina Faso,BFA,OSM,11.16843,-4.27089,,,
Ecole Primaire Prive EBEN EZER,school,Burkina Faso,BFA,OSM,11.18059,-4.33694,,,
École primaire Sikasso sira A et B,school,Burkina Faso,BFA,OSM,11.16981,-4.30752,,,
UPB ex Centre de calcul,university,Burkina Faso,BFA,OSM,11.16461,-4.31496,,,
Ecoles Primaires EST de KOUDOUGOU,school,Burkina Faso,BFA,OSM,12.25439,-2.36115,,,
CEG de Dacisse,school,Burkina Faso,BFA,OSM,12.65949,-2.28388,,,
2iE,university,Burkina Faso,BFA,OSM,12.46213,-1.55142,,,
Institut de formation des personnels de l'éducation du Plateau Central,college,Burkina Faso,BFA,OSM,12.47945,-1.42519,,,
Lycee Prive de la Nativite,school,Burkina Faso,BFA,OSM,11.17843,-4.27489,,,
ABBEF,kindergarten,Burkina Faso,BFA,OSM,11.18812,-4.31841,,,
Lycee Privé Tarwende,school,Burkina Faso,BFA,OSM,12.33677,-1.5406,,,
Ecole,school,Burkina Faso,BFA,OSM,14.48122,-0.03784,,,
Ecole,school,Burkina Faso,BFA,OSM,14.46262,0.00617,,,
Lycée BOGODOGO de Ouagadougou,school,Burkina Faso,BFA,OSM,12.381,-1.5065,,,
Centre d'Etudes Economiques et Sociales de l'Afrique de l'Ouest (CESAO),school,Burkina Faso,BFA,OSM,11.15921,-4.28642,,,
Lycée Mixe d'accard-Ville,school,Burkina Faso,BFA,OSM,11.18739,-4.31539,,,
Lycée Mixe d'accard-Ville,school,Burkina Faso,BFA,OSM,11.18675,-4.31555,,,
Groupe Scolaire Sainte-Collete - annexe professionnelle,school,Burkina Faso,BFA,OSM,12.36841,-1.46305,,,
Groupe Scolaire Camara Laye,school,Burkina Faso,BFA,OSM,12.35005,-1.53676,,,
Collège Privé RAMODG-WENDE,school,Burkina Faso,BFA,OSM,12.32942,-1.52494,,,
Ecole Patte D'Oie A et B,school,Burkina Faso,BFA,OSM,12.32903,-1.5173,,,
Ecole de formation des enseignants du Primaire,school,Burkina Faso,BFA,OSM,10.31573,-3.15505,,,
Ecole,school,Burkina Faso,BFA,OSM,12.77878,-1.60679,,,
L'ecole Primaire,school,Burkina Faso,BFA,OSM,11.1211,-1.91876,,,
Les Leaders de demain,school,Burkina Faso,BFA,OSM,12.33477,-1.53963,,,
Lycée Taal M'bi,school,Burkina Faso,BFA,OSM,12.24833,-2.38707,,,
Lyceé Technique Maurice Yaméogo,school,Burkina Faso,BFA,OSM,12.26581,-2.39736,,,
institut de formation colbert,school,Burkina Faso,BFA,OSM,12.31728,-1.52512,,,
Grand seminaire de Koumi,school,Burkina Faso,BFA,OSM,11.20292,-4.43449,,,
Ecole Elnadia,school,Burkina Faso,BFA,OSM,12.40191,-1.53755,,,
Ecole Taombila A B,school,Burkina Faso,BFA,OSM,12.40437,-1.53858,,,
Ecole primaire ATA,school,Burkina Faso,BFA,OSM,12.40696,-1.53357,,,
École primaire Pella A,school,Burkina Faso,BFA,OSM,12.58463,-2.03551,,,
Ecole Primaire Toungouena,school,Burkina Faso,BFA,OSM,10.63134,-4.74328,,,
Ecole Primaire Franco-Arabe,school,Burkina Faso,BFA,OSM,10.63909,-4.74905,,,
Ecole Primaire Flantama Nord,school,Burkina Faso,BFA,OSM,10.64206,-4.75354,,,
Ecole Primaire Flantama Centre,school,Burkina Faso,BFA,OSM,10.63688,-4.75154,,,
Ecole Primaire Chauvigny,school,Burkina Faso,BFA,OSM,10.63225,-4.75096,,,
Lycée Technique,school,Burkina Faso,BFA,OSM,12.25629,-2.32707,,,
collège,school,Burkina Faso,BFA,OSM,12.57645,-3.29582,,,
Formation professionnelle des jeunes agriculteurs,college,Burkina Faso,BFA,OSM,14.07738,-0.0538,,,
Lycée Municipal Jaque Toula de Banfora,school,Burkina Faso,BFA,OSM,10.62881,-4.74604,,,
Lyceé Yadega,school,Burkina Faso,BFA,OSM,13.58075,-2.42494,,,
Ecole Primaire Centre A,school,Burkina Faso,BFA,OSM,10.64104,-4.76329,,,
Université Norbert Zongo,university,Burkina Faso,BFA,OSM,12.237,-2.39874,,,
St. Viateur,school,Burkina Faso,BFA,OSM,10.63579,-4.73335,,,
Lycée Provinvial Lompolo Kone,school,Burkina Faso,BFA,OSM,10.64356,-4.76746,,,
Lycée MB,school,Burkina Faso,BFA,OSM,10.64099,-4.76462,,,
Ecole Primaire Sud,school,Burkina Faso,BFA,OSM,10.63041,-4.75838,,,
Ecole Primaire Communale,school,Burkina Faso,BFA,OSM,10.62547,-4.74869,,,
Ecole Primaire Avenir,school,Burkina Faso,BFA,OSM,10.63695,-4.75877,,,
CEBNF,school,Burkina Faso,BFA,OSM,10.62546,-4.74447,,,
Direction Regionale de l'Enseignement de Base du Centre Ouest,school,Burkina Faso,BFA,OSM,12.24933,-2.36857,,,
Ecole Primaire Tatana,school,Burkina Faso,BFA,OSM,10.64271,-4.73543,,,
Ecole Tanghin C,school,Burkina Faso,BFA,OSM,12.40093,-1.53944,,,
École de CNSS,school,Burkina Faso,BFA,OSM,12.39356,-1.5836,,,
Lycée Wendenda,school,Burkina Faso,BFA,OSM,12.39141,-1.58578,,,
École Bass-Yiré,school,Burkina Faso,BFA,OSM,12.38761,-1.58257,,,
École Tanghin Barrage A B C,school,Burkina Faso,BFA,OSM,12.39455,-1.5315,,,
École Tanghin A,school,Burkina Faso,BFA,OSM,12.40507,-1.51821,,,
École Kossodo A D,school,Burkina Faso,BFA,OSM,12.41681,-1.46848,,,
Ecole franco-arabe,school,Burkina Faso,BFA,OSM,12.40786,-1.50947,,,
Lycée Provencial de Tougan,school,Burkina Faso,BFA,OSM,13.06921,-3.07006,,,
Lycée d´excellence Nour Alanour,school,Burkina Faso,BFA,OSM,12.41583,-1.50299,,,
Complexe scolaire de l´Église Pentecôte,school,Burkina Faso,BFA,OSM,12.41294,-1.50604,,,
Ecole Somgandé B D,school,Burkina Faso,BFA,OSM,12.41242,-1.49916,,,
Ecole Somgandé A C,school,Burkina Faso,BFA,OSM,12.41121,-1.49095,,,
École Tampouy C,school,Burkina Faso,BFA,OSM,12.39211,-1.55407,,,
École Wekim Yam,school,Burkina Faso,BFA,OSM,12.3863,-1.56152,,,
"École ""Le Messager""",school,Burkina Faso,BFA,OSM,12.39446,-1.5144,,,
Université Libre du Burkina,university,Burkina Faso,BFA,OSM,12.39906,-1.50818,,,
"École ""Sabin Barrage"" A B C",school,Burkina Faso,BFA,OSM,12.39637,-1.51398,,,
FANGA e.V.,school,Burkina Faso,BFA,OSM,10.6393,-4.73197,,,
"École primaire publique Centre ""B et C""",school,Burkina Faso,BFA,OSM,10.63956,-4.75951,,,
Centre de Formation Beneb Nooma,school,Burkina Faso,BFA,OSM,12.2621,-2.38027,,,
Ecole Kiswensida,school,Burkina Faso,BFA,OSM,12.39987,-1.50807,,,
Collège Protestant,school,Burkina Faso,BFA,OSM,12.3925,-1.51865,,,
Ecole Wendenda,school,Burkina Faso,BFA,OSM,12.39617,-1.5494,,,
Lycée de Dori,school,Burkina Faso,BFA,OSM,14.02663,-0.02611,,,
Centre de Formation Saint-Camille,school,Burkina Faso,BFA,OSM,12.3659,-1.49574,,,
Complexe scolaire béniso,school,Burkina Faso,BFA,OSM,12.39686,-1.53937,,,
Centre de Formation Professionnelle Religieuse,college,Burkina Faso,BFA,OSM,12.36014,-1.53542,,,
École Mixte St-Joseph,school,Burkina Faso,BFA,OSM,12.34846,-1.49808,,,
Goumba Lankoundé,school,Burkina Faso,BFA,OSM,12.34453,-1.50031,,,
École Faso Baara,school,Burkina Faso,BFA,OSM,12.33893,-1.50421,,,
Grand Seminaire St Jean,university,Burkina Faso,BFA,OSM,12.40914,-1.55042,,,
2iE,university,Burkina Faso,BFA,OSM,12.45952,-1.55688,,,
Séminaire de Pabré,school,Burkina Faso,BFA,OSM,12.51051,-1.57726,,,
Ecole privée apostolique,school,Burkina Faso,BFA,OSM,12.39268,-1.53642,,,
Instutit Africain de Management (IAM),college,Burkina Faso,BFA,OSM,12.32697,-1.50201,,,
École primaire Nanoro B,school,Burkina Faso,BFA,OSM,12.67892,-2.16831,,,
École primaire de Zoetgomdé,school,Burkina Faso,BFA,OSM,12.55354,-2.20289,,,
École primaire de Gognam,school,Burkina Faso,BFA,OSM,12.68481,-2.11284,,,
École primaire de Basziri,school,Burkina Faso,BFA,OSM,12.65701,-2.21434,,,
École primaire Nazoanga C,school,Burkina Faso,BFA,OSM,12.60573,-2.11212,,,
École primaire de Kalkawa,school,Burkina Faso,BFA,OSM,12.56593,-2.17696,,,
École primaire de Goghin,school,Burkina Faso,BFA,OSM,12.50997,-2.17719,,,
École primaire de Bissiguin,school,Burkina Faso,BFA,OSM,12.56912,-2.02744,,,
École primaire de Tendamtoèga,school,Burkina Faso,BFA,OSM,12.54282,-2.02255,,,
Lycée de Soaw,school,Burkina Faso,BFA,OSM,12.51672,-2.17609,,,
École primaire de Sarana,school,Burkina Faso,BFA,OSM,12.58839,-2.09234,,,
Lycée départemental de Nanoro,school,Burkina Faso,BFA,OSM,12.68351,-2.19572,,,
École primaire Nanoro C,school,Burkina Faso,BFA,OSM,12.69279,-2.18711,,,
Centre St Philippe de Koupéla,school,Burkina Faso,BFA,OSM,12.16418,-0.36446,,,
École primaire de Soum,school,Burkina Faso,BFA,OSM,12.59591,-2.29635,,,
École maternelle de Nanoro,school,Burkina Faso,BFA,OSM,12.69366,-2.18662,,,
École primaire de Koayiri,school,Burkina Faso,BFA,OSM,12.56645,-2.05261,,,
École primaire de Kandaga,school,Burkina Faso,BFA,OSM,12.58843,-2.00399,,,
École primaire Goala A,school,Burkina Faso,BFA,OSM,12.56218,-2.09391,,,
École primaire de Kirguilounga,school,Burkina Faso,BFA,OSM,12.61231,-2.0538,,,
École primaire de Godo Pella,school,Burkina Faso,BFA,OSM,12.617,-1.98893,,,
Ecole du château,school,Burkina Faso,BFA,OSM,12.3548,-1.48155,,,
Ecole du château,school,Burkina Faso,BFA,OSM,12.35423,-1.48199,,,
Ecole du château,school,Burkina Faso,BFA,OSM,12.35423,-1.48221,,,
Ecole du château,school,Burkina Faso,BFA,OSM,12.35407,-1.48203,,,
École primaire de Poesse,school,Burkina Faso,BFA,OSM,12.55692,-2.11404,,,
École primaire de Tanglongo,school,Burkina Faso,BFA,OSM,12.52964,-2.19016,,,
École primaire de Mogdin,school,Burkina Faso,BFA,OSM,12.57561,-2.23665,,,
École Primaire Saint Jean-Baptiste,school,Burkina Faso,BFA,OSM,12.69197,-2.19995,,,
École primaire de Zikiemdin,school,Burkina Faso,BFA,OSM,12.46181,-2.19109,,,
École primaire de Zag Yiri,school,Burkina Faso,BFA,OSM,12.49817,-2.13917,,,
CEG Séguédin Nanoro,school,Burkina Faso,BFA,OSM,12.67898,-2.02132,,,
CEG de Poesse,school,Burkina Faso,BFA,OSM,12.54652,-2.11346,,,
École primaire de Tilla,school,Burkina Faso,BFA,OSM,12.53589,-2.12719,,,
École primaire de Toessin,school,Burkina Faso,BFA,OSM,12.57525,-2.15382,,,
École primaire Nazoanga A,school,Burkina Faso,BFA,OSM,12.62298,-2.12995,,,
CEG de Nazoanga,school,Burkina Faso,BFA,OSM,12.60349,-2.15164,,,
École primaire de Goulouré,school,Burkina Faso,BFA,OSM,12.64726,-2.23748,,,
École primaire de Kokolo,school,Burkina Faso,BFA,OSM,12.60781,-2.20791,,,
École primaire Nazoanga D,school,Burkina Faso,BFA,OSM,12.60341,-2.17482,,,
École primaire Nanoro A,school,Burkina Faso,BFA,OSM,12.68755,-2.19514,,,
École primaire de Poessi,school,Burkina Faso,BFA,OSM,12.68485,-2.13243,,,
École primaire Pella B,school,Burkina Faso,BFA,OSM,12.58385,-2.05443,,,
Lycée Nicolas Perrin,school,Burkina Faso,BFA,OSM,12.65355,-2.07908,,,
Ecole Nationale de Santé Publique (ENSP),school,Burkina Faso,BFA,OSM,12.25604,-2.36723,,,
ecoleprimaire de kera,school,Burkina Faso,BFA,OSM,12.69459,-2.72341,,,
"École Primaire ""Nelson Mandela""",school,Burkina Faso,BFA,OSM,12.33437,-1.55243,,,
Lycée LTPAD,school,Burkina Faso,BFA,OSM,12.32825,-1.55309,,,
Institut Supérieur Privé de Management,university,Burkina Faso,BFA,OSM,12.357,-1.49244,,,
École Catholique,school,Burkina Faso,BFA,OSM,13.07398,-3.06534,,,
Lycée communal de Tougan,school,Burkina Faso,BFA,OSM,13.07487,-3.08331,,,
Ecole Primaire Privée Protestante,school,Burkina Faso,BFA,OSM,12.2581,-2.34224,,,
les lauréats,school,Burkina Faso,BFA,OSM,12.30517,-1.51477,,,
Lycée de Pella,school,Burkina Faso,BFA,OSM,12.58209,-2.04074,,,
École primaire de Godo,school,Burkina Faso,BFA,OSM,12.7291,-2.15136,,,
École primaire de Zimidin,school,Burkina Faso,BFA,OSM,12.6498,-2.16213,,,
École primaire de Dacissé,school,Burkina Faso,BFA,OSM,12.65257,-2.29581,,,
École primaire de Boulpon,school,Burkina Faso,BFA,OSM,12.65349,-2.0721,,,
École primaire de Sitaon,school,Burkina Faso,BFA,OSM,12.64259,-2.10559,,,
École primaire de Soala,school,Burkina Faso,BFA,OSM,12.66529,-1.96783,,,
École primaire de Babouli,school,Burkina Faso,BFA,OSM,12.63813,-2.00956,,,
École primaire Séguédin A,school,Burkina Faso,BFA,OSM,12.6861,-2.02108,,,
Lycée départemental,school,Burkina Faso,BFA,OSM,13.39488,-2.58654,,,
Centre d'alphabétisation,school,Burkina Faso,BFA,OSM,12.3827,-0.6036,,,
Ecole primaire A,school,Burkina Faso,BFA,OSM,12.57454,-3.96574,,,
CEG de Goni,school,Burkina Faso,BFA,OSM,12.57099,-3.97019,,,
CEG de Goni,school,Burkina Faso,BFA,OSM,12.57032,-3.97027,,,
CEG de Goni,school,Burkina Faso,BFA,OSM,12.57084,-3.97059,,,
Ecole primaire de Sikoro,school,Burkina Faso,BFA,OSM,12.62549,-3.7787,,,
Lycée provincial de Yako,school,Burkina Faso,BFA,OSM,12.95975,-2.27595,,,
Gueswindé,school,Burkina Faso,BFA,OSM,12.32836,-1.55496,,,
Ecole franco-arabe,school,Burkina Faso,BFA,OSM,12.37705,-0.60599,,,
ECOLE RIMKIETA,school,Burkina Faso,BFA,OSM,12.37818,-1.58558,,,
Ecole Filles du Cœur de Marie,school,Burkina Faso,BFA,OSM,12.25589,-2.36164,,,
École primaire de Viré-Songdin,school,Burkina Faso,BFA,OSM,13.41573,-2.5547,,,
Ecole primaire de Touri,school,Burkina Faso,BFA,OSM,13.39525,-2.64292,,,
Ecole,school,Burkina Faso,BFA,OSM,12.26233,-1.58894,,,
Ecole,school,Burkina Faso,BFA,OSM,12.27205,-1.56719,,,
Ecole Nasser Hamed,school,Burkina Faso,BFA,OSM,12.41152,-1.63438,,,
Ecole Nasser Hamed,school,Burkina Faso,BFA,OSM,12.41188,-1.63464,,,
CEB I,school,Burkina Faso,BFA,OSM,12.2519,-0.43124,,,
Lycee Privé Oudisongdé,school,Burkina Faso,BFA,OSM,12.40037,-1.46237,,,
Lycee provincial Mollo SANOU,school,Burkina Faso,BFA,OSM,11.16418,-4.2805,,,
Institut National des Sciences de la Santé,university,Burkina Faso,BFA,OSM,11.18205,-4.36221,,,
LYCEE MUNICIPAL SANY SANNON,school,Burkina Faso,BFA,OSM,11.22185,-4.30936,,,
Lycée privé Les Buissonnets,school,Burkina Faso,BFA,OSM,12.31843,-1.65205,,,
Collège Germinal,school,Burkina Faso,BFA,OSM,12.24725,-2.39262,,,
Wend Penga,school,Burkina Faso,BFA,OSM,12.25223,-2.3888,,,
École primaire Centre A &B,school,Burkina Faso,BFA,OSM,12.24965,-2.36736,,,
École primaire Tarwende,school,Burkina Faso,BFA,OSM,12.33662,-1.54014,,,
Complèxe scolaire Berekia,school,Burkina Faso,BFA,OSM,11.12476,-2.0819,,,
École primaire publique Komki A,school,Burkina Faso,BFA,OSM,12.18854,-1.80115,,,
École primaire publique de Vipalogo,school,Burkina Faso,BFA,OSM,12.11816,-1.7641,,,
Collège Sainte Thérèse de Banfora,school,Burkina Faso,BFA,OSM,10.64006,-4.75669,,,
ANPE,school,Burkina Faso,BFA,OSM,10.64684,-4.76168,,,
Association Munyu,school,Burkina Faso,BFA,OSM,10.63782,-4.7611,,,
Institut Sacré Coeur de Banfora,school,Burkina Faso,BFA,OSM,10.64577,-4.74771,,,
Lycée Privé Elkana,school,Burkina Faso,BFA,OSM,11.17749,-4.29715,,,
Cité Universitaire de Kossodo,university,Burkina Faso,BFA,OSM,12.42912,-1.46919,,,
COLLEGE LE RONIER,school,Burkina Faso,BFA,OSM,12.32824,-1.46679,,,
Ecole Djanabamba,school,Burkina Faso,BFA,OSM,10.65021,-4.75958,,,
École A,school,Burkina Faso,BFA,OSM,10.97132,-3.24673,,,
Collège La Salle,school,Burkina Faso,BFA,OSM,12.36422,-1.52551,,,
Lycée Privé la Verdure,university,Burkina Faso,BFA,OSM,12.39089,-1.55662,,,
Ecole superieure SUP MANAGEMENT,university,Burkina Faso,BFA,OSM,12.38766,-1.55692,,,
Ecole,school,Burkina Faso,BFA,OSM,13.59825,-0.71904,,,
Ecole Primaire DIARADOUGOU,school,Burkina Faso,BFA,OSM,11.18881,-4.30208,,,
Complexe Scolaire LE SAVOIRE,school,Burkina Faso,BFA,OSM,11.19684,-4.31911,,,
"École maternelle primaire ""THEA""",school,Burkina Faso,BFA,OSM,12.32978,-1.52539,,,
Groupe scolaire Saint Jean,school,Burkina Faso,BFA,OSM,12.34453,-1.55073,,,
École de Baszaïdo,school,Burkina Faso,BFA,OSM,13.29359,-2.38723,,,
EPP DOUA DRABO,school,Burkina Faso,BFA,OSM,13.07572,-3.07344,,,
Ecole (projet),school,Burkina Faso,BFA,OSM,12.22369,-0.15422,,,
CEG ?,school,Burkina Faso,BFA,OSM,12.22594,-0.12127,,,
Ecole primaire,school,Burkina Faso,BFA,OSM,12.22802,-0.15752,,,
Ecole primaire,school,Burkina Faso,BFA,OSM,12.24464,-0.10921,,,
Médersa,school,Burkina Faso,BFA,OSM,12.24255,-0.1206,,,
Ecole primaire Barjongo,school,Burkina Faso,BFA,OSM,12.24176,-0.12945,,,
Ecole primaire,school,Burkina Faso,BFA,OSM,12.53483,-2.32476,,,
Ecole primaire privée mixte la voie du succès 1,school,Burkina Faso,BFA,OSM,12.38221,-1.55434,,,
Ecole primaire,school,Burkina Faso,BFA,OSM,12.49562,-2.36962,,,
Lycée communal,school,Burkina Faso,BFA,OSM,12.60166,-2.36481,,,
Ecole,school,Burkina Faso,BFA,OSM,12.59798,-2.36224,,,
Ecole primaire,school,Burkina Faso,BFA,OSM,12.64272,-2.24836,,,
Ecole primaire,school,Burkina Faso,BFA,OSM,12.61565,-2.26841,,,
CEG,school,Burkina Faso,BFA,OSM,12.60896,-2.36232,,,
Ecole primaire,school,Burkina Faso,BFA,OSM,12.62278,-2.31818,,,
Ecole primaire de Gogo-Soum,school,Burkina Faso,BFA,OSM,12.61197,-2.32429,,,
Ecole primaire,school,Burkina Faso,BFA,OSM,12.52468,-2.30597,,,
CEG,school,Burkina Faso,BFA,OSM,11.93294,-1.41649,,,
Ecole primaire,school,Burkina Faso,BFA,OSM,11.9914,-1.38805,,,
Ecole primaire,school,Burkina Faso,BFA,OSM,12.23424,-0.06167,,,
Ecole primaire,school,Burkina Faso,BFA,OSM,12.16319,-0.17805,,,
Ecole primaire,school,Burkina Faso,BFA,OSM,12.19751,-0.18978,,,
CEG,school,Burkina Faso,BFA,OSM,12.19059,-0.17388,,,
Ecole primaire,school,Burkina Faso,BFA,OSM,12.20107,-0.17566,,,
Ecole primaire,school,Burkina Faso,BFA,OSM,12.19279,-0.17405,,,
Ecole primaire,school,Burkina Faso,BFA,OSM,12.58196,-2.25268,,,
Ecole ?,school,Burkina Faso,BFA,OSM,12.07798,-1.34352,,,
Ecole ?,school,Burkina Faso,BFA,OSM,12.07811,-1.34209,,,
Médersa,school,Burkina Faso,BFA,OSM,12.07325,-1.34782,,,
Centre alpha?,school,Burkina Faso,BFA,OSM,12.10214,-1.35704,,,
Projet d'école,school,Burkina Faso,BFA,OSM,12.09386,-1.37027,,,
Médersa,school,Burkina Faso,BFA,OSM,12.10739,-1.3585,,,
Ecole primaire,school,Burkina Faso,BFA,OSM,12.11466,-1.29823,,,
Ecole primaire,school,Burkina Faso,BFA,OSM,11.93905,-1.22216,,,
Centre alpha?,school,Burkina Faso,BFA,OSM,12.08257,-1.35003,,,
Ecole primaire,school,Burkina Faso,BFA,OSM,12.59159,-2.34965,,,
CEG,school,Burkina Faso,BFA,OSM,12.57414,-2.37108,,,
Ecole primaire,school,Burkina Faso,BFA,OSM,12.58927,-2.36248,,,
Ecole primaire,school,Burkina Faso,BFA,OSM,12.42758,-2.12988,,,
Ecole primaire,school,Burkina Faso,BFA,OSM,12.44093,-2.16748,,,
Ecole primaire,school,Burkina Faso,BFA,OSM,12.39093,-2.16185,,,
Ecole primaire,school,Burkina Faso,BFA,OSM,12.40253,-2.17399,,,
Ecole primaire,school,Burkina Faso,BFA,OSM,12.42179,-2.1816,,,
Médersa,school,Burkina Faso,BFA,OSM,11.90452,-1.33803,,,
CEG,school,Burkina Faso,BFA,OSM,12.46246,-2.18853,,,
Ecole primaire,school,Burkina Faso,BFA,OSM,12.39363,-2.20554,,,
Ecole primaire,school,Burkina Faso,BFA,OSM,12.42979,-2.21289,,,
CEG,school,Burkina Faso,BFA,OSM,12.4627,-2.20725,,,
Ecole primaire,school,Burkina Faso,BFA,OSM,12.61586,-2.3342,,,
Ecole primaire,school,Burkina Faso,BFA,OSM,12.63678,-2.35582,,,
Ecole primaire,school,Burkina Faso,BFA,OSM,12.65055,-2.35746,,,
Ecole primaire,school,Burkina Faso,BFA,OSM,12.60852,-2.40185,,,
Ecole primaire,school,Burkina Faso,BFA,OSM,12.46181,-2.19084,,,
Ecole primaire,school,Burkina Faso,BFA,OSM,11.99915,-1.35871,,,
Ecole primaire,school,Burkina Faso,BFA,OSM,12.01606,-1.31883,,,
Projet d'école,school,Burkina Faso,BFA,OSM,12.02451,-1.30931,,,
Ecole primaire,school,Burkina Faso,BFA,OSM,11.96229,-1.25774,,,
Préscolaire,kindergarten,Burkina Faso,BFA,OSM,11.99568,-1.24229,,,
CEG,school,Burkina Faso,BFA,OSM,12.48298,-2.37842,,,
Ecole primaire,school,Burkina Faso,BFA,OSM,12.49043,-2.38442,,,
CEG,school,Burkina Faso,BFA,OSM,12.59565,-2.3861,,,
Ecole primaire,school,Burkina Faso,BFA,OSM,12.57399,-2.32936,,,
Ecole primaire,school,Burkina Faso,BFA,OSM,12.57074,-2.37608,,,
Ecole primaire,school,Burkina Faso,BFA,OSM,12.48909,-2.41553,,,
Ecole primaire,school,Burkina Faso,BFA,OSM,12.57285,-2.44096,,,
Ecole primaire,school,Burkina Faso,BFA,OSM,12.53174,-2.48391,,,
CEG,school,Burkina Faso,BFA,OSM,12.55733,-2.49129,,,
Ecole primaire,school,Burkina Faso,BFA,OSM,12.56448,-2.49944,,,
Ecole primaire,school,Burkina Faso,BFA,OSM,12.56437,-2.26427,,,
Ecole primaire,school,Burkina Faso,BFA,OSM,12.55101,-2.30611,,,
Ecole primaire,school,Burkina Faso,BFA,OSM,12.5769,-2.38283,,,
Ecole primaire,school,Burkina Faso,BFA,OSM,12.23791,0.04944,,,
Ecole primaire,school,Burkina Faso,BFA,OSM,12.22332,0.03525,,,
Ecole primaire,school,Burkina Faso,BFA,OSM,12.19219,0.04983,,,
Ecole primaire,school,Burkina Faso,BFA,OSM,12.62475,-2.28783,,,
Ecole primaire,school,Burkina Faso,BFA,OSM,12.19521,0.03577,,,
Centre alpha,school,Burkina Faso,BFA,OSM,12.1956,0.03278,,,
Ecole primaire,school,Burkina Faso,BFA,OSM,12.16818,0.05298,,,
Ecole primaire,school,Burkina Faso,BFA,OSM,12.20985,-0.01301,,,
Ecole primaire,school,Burkina Faso,BFA,OSM,11.91987,-1.41391,,,
Ecole primaire,school,Burkina Faso,BFA,OSM,12.1668,-0.23122,,,
CEG,school,Burkina Faso,BFA,OSM,12.18448,-0.23003,,,
Ecole primaire,school,Burkina Faso,BFA,OSM,12.18175,-0.23554,,,
Ecole primaire,school,Burkina Faso,BFA,OSM,12.18091,-0.2355,,,
Ecole primaire,school,Burkina Faso,BFA,OSM,12.18059,-0.2241,,,
Ecole primaire,school,Burkina Faso,BFA,OSM,12.19654,-0.03107,,,
Ecole primaire,school,Burkina Faso,BFA,OSM,12.18395,-0.0733,,,
Ecole primaire,school,Burkina Faso,BFA,OSM,12.20548,-0.07849,,,
Ecole primaire,school,Burkina Faso,BFA,OSM,12.17038,-0.25205,,,
Ecole primaire,school,Burkina Faso,BFA,OSM,12.18018,-0.2227,,,
Ecole primaire,school,Burkina Faso,BFA,OSM,12.17083,-0.2186,,,
Ecole primaire,school,Burkina Faso,BFA,OSM,12.23891,-0.23722,,,
Ecole primaire,school,Burkina Faso,BFA,OSM,12.25629,-0.2193,,,
Ecole primaire B,school,Burkina Faso,BFA,OSM,12.28592,-0.22017,,,
Ecole primaire,school,Burkina Faso,BFA,OSM,12.29825,-0.21588,,,
Ecole primaire,school,Burkina Faso,BFA,OSM,12.26207,-0.24567,,,
Ecole primaire A,school,Burkina Faso,BFA,OSM,12.28649,-0.19963,,,
Ecole primaire,school,Burkina Faso,BFA,OSM,12.26905,0.05403,,,
CEG,school,Burkina Faso,BFA,OSM,12.28872,-0.19598,,,
Ecole primaire,school,Burkina Faso,BFA,OSM,13.44264,-2.32052,,,
Ecole primaire,school,Burkina Faso,BFA,OSM,13.47356,-2.30808,,,
CEG,school,Burkina Faso,BFA,OSM,13.4694,-2.30095,,,
Ecole primaire,school,Burkina Faso,BFA,OSM,13.46526,-2.31627,,,
Ecole primaire,school,Burkina Faso,BFA,OSM,12.22589,-0.28061,,,
CEG,school,Burkina Faso,BFA,OSM,12.2199,-0.28178,,,
Ecole primaire,school,Burkina Faso,BFA,OSM,12.27419,-0.02017,,,
Ecole primaire,school,Burkina Faso,BFA,OSM,12.26785,-0.20131,,,
CEG,school,Burkina Faso,BFA,OSM,12.20122,-0.15333,,,
CEG,school,Burkina Faso,BFA,OSM,12.19588,-0.1288,,,
Ecole primaire,school,Burkina Faso,BFA,OSM,12.20584,-0.12943,,,
Ecole primaire,school,Burkina Faso,BFA,OSM,12.19678,-0.1218,,,
Ecole primaire,school,Burkina Faso,BFA,OSM,12.16814,-0.01342,,,
Ecole primaire,school,Burkina Faso,BFA,OSM,12.16318,-0.08608,,,
Ecole primaire,school,Burkina Faso,BFA,OSM,12.17023,-0.05465,,,
Ecole primaire,school,Burkina Faso,BFA,OSM,12.16964,-0.0551,,,
Ecole primaire,school,Burkina Faso,BFA,OSM,12.2163,-0.02873,,,
Ecole primaire,school,Burkina Faso,BFA,OSM,12.18181,-0.00927,,,
Ecole primaire,school,Burkina Faso,BFA,OSM,12.23807,-0.12008,,,
EPP Bittou,school,Burkina Faso,BFA,OSM,11.26455,-0.30684,,,
Complexe scolaire Baraka,school,Burkina Faso,BFA,OSM,11.13772,-4.28184,,,
Complexe scolaire la référence,school,Burkina Faso,BFA,OSM,11.13838,-4.28354,,,
Lycée Kourita de Koupela,school,Burkina Faso,BFA,OSM,12.18302,-0.36426,,,
Médersa,school,Burkina Faso,BFA,OSM,11.87327,-1.46847,,,
Projet (CEG?),school,Burkina Faso,BFA,OSM,11.87205,-1.47612,,,
Ecole primaire,school,Burkina Faso,BFA,OSM,12.19194,-0.00949,,,
Ecole Primaire Privée Espérance de Saaba,school,Burkina Faso,BFA,OSM,12.36901,-1.39974,,,
Ecole primaire,school,Burkina Faso,BFA,OSM,12.22309,-0.06745,,,
CEG en construction,school,Burkina Faso,BFA,OSM,12.23098,-0.0752,,,
Ecole primaire,school,Burkina Faso,BFA,OSM,12.24775,-0.0288,,,
Ecole primaire,school,Burkina Faso,BFA,OSM,12.23921,-0.05306,,,
CEG,school,Burkina Faso,BFA,OSM,12.24178,-0.05288,,,
CEG,school,Burkina Faso,BFA,OSM,12.30447,-0.0875,,,
Ecole primaire,school,Burkina Faso,BFA,OSM,12.2979,-0.09081,,,
Ecole primaire,school,Burkina Faso,BFA,OSM,12.20517,-0.15603,,,
Ecole primaire,school,Burkina Faso,BFA,OSM,12.27324,-0.14643,,,
Médersa,school,Burkina Faso,BFA,OSM,12.27113,-0.14234,,,
Ecole primaire,school,Burkina Faso,BFA,OSM,12.26603,-0.11587,,,
Ecole primaire,school,Burkina Faso,BFA,OSM,12.16904,-0.15824,,,
Ecole primaire,school,Burkina Faso,BFA,OSM,12.167,-0.13797,,,
CEG,school,Burkina Faso,BFA,OSM,12.15816,-0.13259,,,
Ecole,school,Burkina Faso,BFA,OSM,12.16295,-0.12217,,,
Ecole primaire,school,Burkina Faso,BFA,OSM,12.19144,-0.15273,,,
Ecole primaire,school,Burkina Faso,BFA,OSM,12.29969,-0.09568,,,
Ecole primaire,school,Burkina Faso,BFA,OSM,12.22727,-1.74556,,,
Ecole primaire,school,Burkina Faso,BFA,OSM,12.25993,-1.64384,,,
Ecole,school,Burkina Faso,BFA,OSM,12.28662,-1.67983,,,
Ecole primaire,school,Burkina Faso,BFA,OSM,12.27705,-1.70409,,,
Ecole primaire,school,Burkina Faso,BFA,OSM,12.2862,-1.63434,,,
CEG,school,Burkina Faso,BFA,OSM,12.28277,-1.71323,,,
Médersa,school,Burkina Faso,BFA,OSM,12.2769,-1.71485,,,
Ecole primaire,school,Burkina Faso,BFA,OSM,12.60145,-2.38438,,,
Ecole primaire,school,Burkina Faso,BFA,OSM,12.28861,-1.71834,,,
Ecole primaire,school,Burkina Faso,BFA,OSM,12.28188,-1.71847,,,
Ecole catholique Rimkiéma,school,Burkina Faso,BFA,OSM,12.27822,-1.71923,,,
Ecole primaire,school,Burkina Faso,BFA,OSM,12.30628,-1.74285,,,
Ecole primaire,school,Burkina Faso,BFA,OSM,12.26995,-1.75994,,,
Ecole primaire,school,Burkina Faso,BFA,OSM,12.25967,-1.75388,,,
Ecole primaire,school,Burkina Faso,BFA,OSM,12.2353,-1.7623,,,
Ecole primaire,school,Burkina Faso,BFA,OSM,12.30585,-1.776,,,
Ecole primaire,school,Burkina Faso,BFA,OSM,12.28473,-1.74699,,,
Ecole,school,Burkina Faso,BFA,OSM,12.33501,-1.66451,,,
Ecole,school,Burkina Faso,BFA,OSM,12.33845,-1.67191,,,
Ecole primaire,school,Burkina Faso,BFA,OSM,12.32144,-1.69045,,,
Ecole primaire,school,Burkina Faso,BFA,OSM,12.45094,-2.04288,,,
Ecole primaire,school,Burkina Faso,BFA,OSM,12.44466,-2.04407,,,
Médersa,school,Burkina Faso,BFA,OSM,12.4378,-2.04058,,,
Lycée communal,school,Burkina Faso,BFA,OSM,12.43067,-2.04868,,,
Ecole primaire,school,Burkina Faso,BFA,OSM,12.43547,-2.02408,,,
CEG,school,Burkina Faso,BFA,OSM,12.22766,-1.74634,,,
Médersa,school,Burkina Faso,BFA,OSM,12.27261,-1.7196,,,
Ecole,school,Burkina Faso,BFA,OSM,12.27256,-1.70691,,,
Ecole,school,Burkina Faso,BFA,OSM,12.27011,-1.70316,,,
Ecole,school,Burkina Faso,BFA,OSM,12.27085,-1.70466,,,
Ecole,school,Burkina Faso,BFA,OSM,12.2577,-1.72951,,,
Ecole primaire,school,Burkina Faso,BFA,OSM,12.22321,-1.71941,,,
Ecole primaire,school,Burkina Faso,BFA,OSM,12.23589,-1.72604,,,
Ecole primaire,school,Burkina Faso,BFA,OSM,12.2347,-1.75545,,,
Ecole primaire,school,Burkina Faso,BFA,OSM,12.43479,-2.02276,,,
CEG,school,Burkina Faso,BFA,OSM,12.27568,-1.7234,,,
Ecole,school,Burkina Faso,BFA,OSM,12.27971,-1.72161,,,
Ecole primaire,school,Burkina Faso,BFA,OSM,12.27739,-1.73787,,,
CEG,school,Burkina Faso,BFA,OSM,12.27169,-1.72761,,,
Ecole primaire,school,Burkina Faso,BFA,OSM,12.37525,-1.7515,,,
Ecole primaire,school,Burkina Faso,BFA,OSM,12.37785,-1.74843,,,
Ecole primaire,school,Burkina Faso,BFA,OSM,12.401,-1.7306,,,
CEG,school,Burkina Faso,BFA,OSM,12.38262,-1.76151,,,
Ecole primaire,school,Burkina Faso,BFA,OSM,12.3036,-1.76252,,,
Ecole primaire,school,Burkina Faso,BFA,OSM,12.33792,-1.71273,,,
Médersa,school,Burkina Faso,BFA,OSM,12.37334,-1.72265,,,
Ecole primaire,school,Burkina Faso,BFA,OSM,12.37116,-1.72767,,,
Médersa,school,Burkina Faso,BFA,OSM,12.36227,-1.71235,,,
Ecole primaire,school,Burkina Faso,BFA,OSM,12.36684,-1.70577,,,
CEG,school,Burkina Faso,BFA,OSM,12.30314,-1.76341,,,
Ecole primaire,school,Burkina Faso,BFA,OSM,12.29748,-1.76957,,,
Ecole primaire,school,Burkina Faso,BFA,OSM,12.29738,-1.76512,,,
Ecole primaire,school,Burkina Faso,BFA,OSM,12.38269,-1.76092,,,
Ecole primaire,school,Burkina Faso,BFA,OSM,12.32846,-1.70012,,,
Ecole primaire,school,Burkina Faso,BFA,OSM,12.31827,-1.70723,,,
CEG,school,Burkina Faso,BFA,OSM,12.31667,-1.70328,,,
Ecole primaire,school,Burkina Faso,BFA,OSM,12.31822,-1.7034,,,
Ecole (construction),school,Burkina Faso,BFA,OSM,12.26407,-1.72247,,,
Ecole,school,Burkina Faso,BFA,OSM,12.26221,-1.72652,,,
Ecole primaire,school,Burkina Faso,BFA,OSM,12.29538,-1.79771,,,
Ecole primaire,school,Burkina Faso,BFA,OSM,12.28542,-1.76828,,,
Ecole primaire,school,Burkina Faso,BFA,OSM,12.27881,-1.72402,,,
Ecole primaire,school,Burkina Faso,BFA,OSM,12.32584,-1.78146,,,
CEG?,school,Burkina Faso,BFA,OSM,12.3264,-1.78026,,,
CEG,school,Burkina Faso,BFA,OSM,12.33976,-1.75897,,,
CEG,school,Burkina Faso,BFA,OSM,12.34062,-1.73698,,,
Ecole primaire,school,Burkina Faso,BFA,OSM,12.34347,-1.7416,,,
Ecole primaire,school,Burkina Faso,BFA,OSM,12.34793,-1.75923,,,
Ecole primaire,school,Burkina Faso,BFA,OSM,12.35317,-1.7819,,,
Ecole primaire,school,Burkina Faso,BFA,OSM,12.19594,-1.65486,,,
CEG,school,Burkina Faso,BFA,OSM,12.28606,-1.76631,,,
Ecole primaire,school,Burkina Faso,BFA,OSM,12.3718,-2.07762,,,
Ecole primaire,school,Burkina Faso,BFA,OSM,12.37168,-2.07561,,,
CEG,school,Burkina Faso,BFA,OSM,12.37398,-2.0758,,,
Ecole primaire,school,Burkina Faso,BFA,OSM,12.39053,-2.06053,,,
Ecole primaire,school,Burkina Faso,BFA,OSM,12.39123,-2.09029,,,
Ecole primaire,school,Burkina Faso,BFA,OSM,12.37726,-2.10578,,,
Ecole primaire,school,Burkina Faso,BFA,OSM,12.40494,-2.06872,,,
Ecole primaire,school,Burkina Faso,BFA,OSM,12.41383,-2.04135,,,
Ecole primaire,school,Burkina Faso,BFA,OSM,12.34112,-1.66106,,,
Ecole primaire,school,Burkina Faso,BFA,OSM,12.37415,-2.21898,,,
Ecole primaire,school,Burkina Faso,BFA,OSM,12.37805,-2.17002,,,
Ecole primaire,school,Burkina Faso,BFA,OSM,12.36151,-2.20234,,,
Ecole primaire,school,Burkina Faso,BFA,OSM,12.35785,-2.18294,,,
Ecole primaire,school,Burkina Faso,BFA,OSM,12.32876,-2.20479,,,
CEG,school,Burkina Faso,BFA,OSM,12.33822,-2.18517,,,
Ecole primaire,school,Burkina Faso,BFA,OSM,12.46503,-2.13669,,,
CEG,school,Burkina Faso,BFA,OSM,12.44672,-2.06218,,,
Ecole primaire (A VERIFIER),school,Burkina Faso,BFA,OSM,12.40387,-2.10791,,,
Ecole primaire,school,Burkina Faso,BFA,OSM,12.61473,-2.41961,,,
Collège (Lycée Municipal),school,Burkina Faso,BFA,OSM,12.34043,-2.17077,,,
Ecole primaire,school,Burkina Faso,BFA,OSM,12.33434,-2.17347,,,
Ecole (non fonctionnelle),school,Burkina Faso,BFA,OSM,12.32821,-2.1425,,,
Ecole primaire,school,Burkina Faso,BFA,OSM,12.32346,-2.13915,,,
Ecole primaire,school,Burkina Faso,BFA,OSM,12.32797,-2.12624,,,
Ecole primaire,school,Burkina Faso,BFA,OSM,12.32006,-2.16017,,,
Ecole primaire A,school,Burkina Faso,BFA,OSM,12.32762,-2.17307,,,
Ecole primaire,school,Burkina Faso,BFA,OSM,12.37767,-2.05225,,,
Ecole primaire,school,Burkina Faso,BFA,OSM,12.3148,-2.20825,,,
Ecole primaire,school,Burkina Faso,BFA,OSM,12.31441,-2.17942,,,
Ecole primaire,school,Burkina Faso,BFA,OSM,12.36565,-2.16291,,,
Ecole primaire,school,Burkina Faso,BFA,OSM,12.36743,-2.14707,,,
Ecole (projet),school,Burkina Faso,BFA,OSM,12.36498,-2.15771,,,
Ecole primaire,school,Burkina Faso,BFA,OSM,12.38964,-2.13691,,,
Ecole primaire,school,Burkina Faso,BFA,OSM,12.41955,-2.15796,,,
CEG,school,Burkina Faso,BFA,OSM,12.40809,-2.15963,,,
CEG,school,Burkina Faso,BFA,OSM,12.32735,-2.17399,,,
Ecole primaire,school,Burkina Faso,BFA,OSM,12.23762,-1.64802,,,
Préscolaire,kindergarten,Burkina Faso,BFA,OSM,12.24311,-1.65599,,,
Ecole primaire,school,Burkina Faso,BFA,OSM,12.24449,-1.65647,,,
Ecole,school,Burkina Faso,BFA,OSM,12.24572,-1.67305,,,
Médersa,school,Burkina Faso,BFA,OSM,12.24504,-1.6485,,,
Ecole primaire,school,Burkina Faso,BFA,OSM,12.40115,-2.10818,,,
CEG,school,Burkina Faso,BFA,OSM,12.40616,-2.09607,,,
Ecole primaire,school,Burkina Faso,BFA,OSM,12.39501,-2.09272,,,
Ecole primaire,school,Burkina Faso,BFA,OSM,12.48315,-2.0834,,,
Ecole primaire,school,Burkina Faso,BFA,OSM,12.44845,-2.08098,,,
CEG,school,Burkina Faso,BFA,OSM,12.42207,-2.06102,,,
Ecole,school,Burkina Faso,BFA,OSM,12.28384,-1.70288,,,
CEG,school,Burkina Faso,BFA,OSM,12.30103,-1.68159,,,
Ecole primaire,school,Burkina Faso,BFA,OSM,12.29999,-1.68154,,,
Ecole primaire,school,Burkina Faso,BFA,OSM,12.31882,-1.67338,,,
Ecole,school,Burkina Faso,BFA,OSM,12.32856,-1.67737,,,
Ecole,school,Burkina Faso,BFA,OSM,12.34393,-1.66492,,,
Ecole primaire,school,Burkina Faso,BFA,OSM,12.44926,-2.11236,,,
Ecole primaire,school,Burkina Faso,BFA,OSM,12.47507,-2.04711,,,
Ecole primaire,school,Burkina Faso,BFA,OSM,12.47592,-2.02719,,,
Ecole primaire,school,Burkina Faso,BFA,OSM,12.50181,-1.97747,,,
Ecole primaire,school,Burkina Faso,BFA,OSM,12.50342,-1.96098,,,
Ecole primaire,school,Burkina Faso,BFA,OSM,12.51163,-1.95161,,,
Ecole primaire,school,Burkina Faso,BFA,OSM,12.52774,-1.94065,,,
Ecole primaire,school,Burkina Faso,BFA,OSM,12.45367,-2.01379,,,
Ecole primaire,school,Burkina Faso,BFA,OSM,12.3229,-2.18438,,,
Ecole primaire,school,Burkina Faso,BFA,OSM,12.42982,-2.03322,,,
Ecole primaire,school,Burkina Faso,BFA,OSM,12.31635,-2.18906,,,
CEG,school,Burkina Faso,BFA,OSM,12.30414,-2.14736,,,
Ecole primaire,school,Burkina Faso,BFA,OSM,12.30394,-2.15738,,,
Ecole primaire,school,Burkina Faso,BFA,OSM,12.33416,-2.12128,,,
Médersa,school,Burkina Faso,BFA,OSM,12.43561,-2.02971,,,
CEG,school,Burkina Faso,BFA,OSM,12.43575,-2.03568,,,
Ecole primaire,school,Burkina Faso,BFA,OSM,12.43571,-2.03629,,,
Ecole primaire,school,Burkina Faso,BFA,OSM,12.43636,-2.03674,,,
Ecole primaire,school,Burkina Faso,BFA,OSM,12.30132,-2.19463,,,
École GueswendBala,school,Burkina Faso,BFA,OSM,12.32446,-1.52262,,,
Complexe scolaire Aurore,school,Burkina Faso,BFA,OSM,12.33069,-1.50563,,,
Ecole Delwendé,school,Burkina Faso,BFA,OSM,12.33784,-1.51432,,,
Lycée Zémaguida,school,Burkina Faso,BFA,OSM,12.34029,-1.50962,,,
Lycée Girovy,school,Burkina Faso,BFA,OSM,12.35058,-1.49961,,,
Lycée technique Amilcar cabral,school,Burkina Faso,BFA,OSM,12.38192,-1.46198,,,
Lycée de la jeunesse,school,Burkina Faso,BFA,OSM,12.38243,-1.47639,,,
Ecole primaire,school,Burkina Faso,BFA,OSM,13.48994,-2.32141,,,
Lycée Technique Charles Lavigerie,school,Burkina Faso,BFA,OSM,12.36312,-1.52567,,,
Lycée Saint-Exupéry de Ouagadougou,school,Burkina Faso,BFA,OSM,12.36444,-1.52433,,,
École de l´amitié,school,Burkina Faso,BFA,OSM,12.38463,-1.48764,,,
Collège Horizon International,school,Burkina Faso,BFA,OSM,12.37954,-1.48818,,,
École Franco-arabe,school,Burkina Faso,BFA,OSM,12.3805,-1.48767,,,
École Dassasgo C D,school,Burkina Faso,BFA,OSM,12.37361,-1.47667,,,
Cours privé Marie Curie,school,Burkina Faso,BFA,OSM,12.36973,-1.46258,,,
Groupe scolaire sainte Colette,school,Burkina Faso,BFA,OSM,12.37415,-1.45884,,,
Juvenat,school,Burkina Faso,BFA,OSM,12.37739,-1.47515,,,
Lycée Municipal Venegré,school,Burkina Faso,BFA,OSM,12.33792,-1.56075,,,
Lycée Mixte de Goughin,school,Burkina Faso,BFA,OSM,12.34766,-1.55119,,,
École Cité An II,school,Burkina Faso,BFA,OSM,12.3425,-1.5236,,,
École Kamsonghin Sud,school,Burkina Faso,BFA,OSM,12.34933,-1.52497,,,
École Cissin Nord,school,Burkina Faso,BFA,OSM,12.34138,-1.54157,,,
Office Central des Examens et Concours,university,Burkina Faso,BFA,OSM,12.34028,-1.52872,,,
Lycée Saint-Joseph,school,Burkina Faso,BFA,OSM,12.33926,-1.52691,,,
Fondation Jean Paul II IPD AOS,school,Burkina Faso,BFA,OSM,12.39223,-1.46742,,,
Ecole Waog Taaba,school,Burkina Faso,BFA,OSM,12.31842,-1.52709,,,
Groupe scolaire la source,school,Burkina Faso,BFA,OSM,12.40186,-1.47674,,,
ecole Wayalgin C,school,Burkina Faso,BFA,OSM,12.39884,-1.48006,,,
École Nabonswendé,school,Burkina Faso,BFA,OSM,12.3897,-1.47986,,,
École Dassasgo A E F,school,Burkina Faso,BFA,OSM,12.38542,-1.47467,,,
Lycée des Nations,school,Burkina Faso,BFA,OSM,12.31759,-1.53497,,,
Lycée Universalis,school,Burkina Faso,BFA,OSM,12.31884,-1.53492,,,
Ecole Naba Ambga,school,Burkina Faso,BFA,OSM,12.31857,-1.51196,,,
ISPP,college,Burkina Faso,BFA,OSM,12.32952,-1.5244,,,
Lycée Newton Descartes,school,Burkina Faso,BFA,OSM,12.3938,-1.46936,,,
"Centre Islamique ""El Nour""",school,Burkina Faso,BFA,OSM,12.3821,-1.46053,,,
École Tabtinga,school,Burkina Faso,BFA,OSM,12.38016,-1.46145,,,
École Kalgondin,school,Burkina Faso,BFA,OSM,12.35496,-1.50539,,,
Ecole,school,Burkina Faso,BFA,OSM,12.22829,-1.48481,,,
Ecole,school,Burkina Faso,BFA,OSM,12.22668,-1.48506,,,
Ecole primaire Kua D,school,Burkina Faso,BFA,OSM,11.17803,-4.24646,,,
Ecole primaire,school,Burkina Faso,BFA,OSM,12.22768,-1.47389,,,
CEG,school,Burkina Faso,BFA,OSM,12.18341,-1.50216,,,
Ecole Trame d´accueil,school,Burkina Faso,BFA,OSM,12.38313,-1.45538,,,
Ecole primaire,school,Burkina Faso,BFA,OSM,11.82982,-1.56596,,,
École Internationale,school,Burkina Faso,BFA,OSM,12.3801,-1.4894,,,
École Belemtissé,school,Burkina Faso,BFA,OSM,12.38411,-1.49231,,,
École zone du bois,school,Burkina Faso,BFA,OSM,12.38582,-1.49262,,,
École nationale de santé animale,school,Burkina Faso,BFA,OSM,12.3851,-1.49697,,,
École Communale de Zogona,school,Burkina Faso,BFA,OSM,12.37673,-1.49475,,,
École Wend La Mita,school,Burkina Faso,BFA,OSM,12.35633,-1.48832,,,
Juvenat Saint Camille,school,Burkina Faso,BFA,OSM,12.36064,-1.48626,,,
Médersa,school,Burkina Faso,BFA,OSM,11.81926,-1.55133,,,
ecole Elysa,school,Burkina Faso,BFA,OSM,12.38901,-1.45704,,,
Ecole Famille,school,Burkina Faso,BFA,OSM,12.3912,-1.45437,,,
Lycée William Ponty,school,Burkina Faso,BFA,OSM,12.39586,-1.46192,,,
Ecole Anny Simone,school,Burkina Faso,BFA,OSM,12.40103,-1.46254,,,
EFEC,school,Burkina Faso,BFA,OSM,12.36281,-1.49826,,,
École 1200 Logements,school,Burkina Faso,BFA,OSM,12.36205,-1.49595,,,
ISIG,university,Burkina Faso,BFA,OSM,12.36018,-1.49838,,,
École du Secteur 29 Dagnoen ABC,school,Burkina Faso,BFA,OSM,12.36376,-1.49249,,,
Noviciat,school,Burkina Faso,BFA,OSM,12.38402,-1.46087,,,
École Paspanga A et B,school,Burkina Faso,BFA,OSM,12.37764,-1.51755,,,
Collège de Formation Technique,school,Burkina Faso,BFA,OSM,12.37559,-1.51656,,,
Lycée Réveil,school,Burkina Faso,BFA,OSM,12.37142,-1.49885,,,
Institut des Sciences,school,Burkina Faso,BFA,OSM,12.35731,-1.48056,,,
Grand Séminaire Saint jean-baptiste,university,Burkina Faso,BFA,OSM,12.39546,-1.47652,,,
ENAREF,college,Burkina Faso,BFA,OSM,12.39179,-1.47954,,,
Groupe Scolaire Saint Viateur,school,Burkina Faso,BFA,OSM,12.37785,-1.46728,,,
Centre de Formation Biblique,school,Burkina Faso,BFA,OSM,12.38441,-1.45924,,,
École Wemtenga,school,Burkina Faso,BFA,OSM,12.37335,-1.48453,,,
Lycée Songtaaba,school,Burkina Faso,BFA,OSM,12.359,-1.55759,,,
Lycée Privé Noureine,school,Burkina Faso,BFA,OSM,12.36351,-1.55251,,,
École Kolg-Kom,school,Burkina Faso,BFA,OSM,12.38486,-1.57236,,,
Ecole de Douane,school,Burkina Faso,BFA,OSM,12.37531,-1.52012,,,
ecole primaire dapoya 2,school,Burkina Faso,BFA,OSM,12.38165,-1.51883,,,
École Sacré-Cœur de Dapoya,school,Burkina Faso,BFA,OSM,12.38276,-1.52307,,,
Garderie,school,Burkina Faso,BFA,OSM,12.38179,-1.52705,,,
École Nemnin,school,Burkina Faso,BFA,OSM,12.38158,-1.5324,,,
École Managbzanga,school,Burkina Faso,BFA,OSM,12.33907,-1.55122,,,
Lycée Dimdolossom,school,Burkina Faso,BFA,OSM,12.37758,-1.53575,,,
École larlé A B,school,Burkina Faso,BFA,OSM,12.37649,-1.53606,,,
Collège des jeunes filles Notre Dame de Kologh-Naba,school,Burkina Faso,BFA,OSM,12.38107,-1.54607,,,
École Kologh-Naba,school,Burkina Faso,BFA,OSM,12.38114,-1.54865,,,
Lycée Parents d´Élèves,school,Burkina Faso,BFA,OSM,12.34041,-1.56959,,,
École Franco-Arabe,school,Burkina Faso,BFA,OSM,12.3417,-1.56611,,,
École Ragnim Kamba,school,Burkina Faso,BFA,OSM,12.33812,-1.56636,,,
Collège Trikoni,school,Burkina Faso,BFA,OSM,12.32524,-1.54185,,,
École Communale B de Ouidi,school,Burkina Faso,BFA,OSM,12.37946,-1.53679,,,
Ecole Naba Wagsé B,school,Burkina Faso,BFA,OSM,12.37958,-1.5534,,,
"Institut Franco-Arabe ""Al Elmi""",school,Burkina Faso,BFA,OSM,12.37364,-1.55429,,,
Ecole Kossoghin,school,Burkina Faso,BFA,OSM,12.40093,-1.55429,,,
École notre Dame de l´Espérance,school,Burkina Faso,BFA,OSM,12.4015,-1.56949,,,
École Sakada,school,Burkina Faso,BFA,OSM,12.40241,-1.57475,,,
École Galiyam,school,Burkina Faso,BFA,OSM,12.40569,-1.57966,,,
École basywensida,school,Burkina Faso,BFA,OSM,12.39501,-1.57652,,,
École Tampouy A B,school,Burkina Faso,BFA,OSM,12.39514,-1.57014,,,
Complexe scolaire Saint-Pierre de Kouka,school,Burkina Faso,BFA,OSM,12.35665,-1.55514,,,
Lycée municipal,school,Burkina Faso,BFA,OSM,12.39715,-1.56076,,,
École Tampouy E,school,Burkina Faso,BFA,OSM,12.39517,-1.56417,,,
École Signonghin A B,school,Burkina Faso,BFA,OSM,12.39315,-1.57638,,,
Centre Dominique Chauvet d´arcizas,school,Burkina Faso,BFA,OSM,12.39739,-1.58658,,,
Collège Nakem Zanga,school,Burkina Faso,BFA,OSM,12.39578,-1.58133,,,
École de Signonghin C,school,Burkina Faso,BFA,OSM,12.39638,-1.58487,,,
École Gounghin Nord B,school,Burkina Faso,BFA,OSM,12.35794,-1.55006,,,
Ecole Gounghin Nord C,school,Burkina Faso,BFA,OSM,12.35842,-1.55532,,,
Soeurs Aspirat,university,Burkina Faso,BFA,OSM,12.39487,-1.56815,,,
Groupe scolaire Baoneere,school,Burkina Faso,BFA,OSM,12.34631,-1.56883,,,
École primaire privée Boawendson,school,Burkina Faso,BFA,OSM,12.33307,-1.58362,,,
École primaire privée Adventiste Elysée,school,Burkina Faso,BFA,OSM,12.33236,-1.58438,,,
École la fraternité,school,Burkina Faso,BFA,OSM,12.33877,-1.57466,,,
École Ste Famille,school,Burkina Faso,BFA,OSM,12.33748,-1.57732,,,
Groupe scolaire Omar,school,Burkina Faso,BFA,OSM,12.33665,-1.57686,,,
École Pissy A B,school,Burkina Faso,BFA,OSM,12.33449,-1.57719,,,
École des Sourds-Muets,school,Burkina Faso,BFA,OSM,12.34207,-1.57067,,,
Ecole privée la paix,school,Burkina Faso,BFA,OSM,12.3259,-1.54833,,,
Ecole Sin-Yiri C D,school,Burkina Faso,BFA,OSM,12.34356,-1.4889,,,
Ecole Sin-Yiri A B,school,Burkina Faso,BFA,OSM,12.35258,-1.48602,,,
"Groupe scolaire ""Bon Berger""",school,Burkina Faso,BFA,OSM,12.35101,-1.47556,,,
Groupe scolaire Yiguia-Bangré,school,Burkina Faso,BFA,OSM,12.36026,-1.47681,,,
Ecole Manegda,school,Burkina Faso,BFA,OSM,12.35991,-1.46981,,,
Groupe scolaire Boa Yam,school,Burkina Faso,BFA,OSM,12.36637,-1.4683,,,
collège privé Benaja,school,Burkina Faso,BFA,OSM,12.32403,-1.55284,,,
École Wendmanagda,school,Burkina Faso,BFA,OSM,12.33947,-1.55436,,,
Complexe Scolaire Parents d´Élèves,school,Burkina Faso,BFA,OSM,12.34103,-1.5697,,,
École Kwamé N'Krumah B,school,Burkina Faso,BFA,OSM,12.375,-1.5487,,,
Ecole Ouogodogo A B,school,Burkina Faso,BFA,OSM,12.37844,-1.55816,,,
École publique Ouogodogo C D,school,Burkina Faso,BFA,OSM,12.37275,-1.56689,,,
Les cours privés de la Solidarité,school,Burkina Faso,BFA,OSM,12.37714,-1.57174,,,
École publique Nongomikim,school,Burkina Faso,BFA,OSM,12.37254,-1.57275,,,
École primaire privée Song-Taba,school,Burkina Faso,BFA,OSM,12.37143,-1.57472,,,
École Franco-Arabe,school,Burkina Faso,BFA,OSM,12.37152,-1.57624,,,
2iE,university,Burkina Faso,BFA,OSM,12.37913,-1.50355,,,
École Wend Panga,school,Burkina Faso,BFA,OSM,12.34727,-1.57602,,,
École Baoghin A B,school,Burkina Faso,BFA,OSM,12.36918,-1.53861,,,
École Apostolique,school,Burkina Faso,BFA,OSM,12.36372,-1.54545,,,
Ecole Patrice Lumumba,school,Burkina Faso,BFA,OSM,12.33025,-1.53344,,,
Collège Saint Michel,school,Burkina Faso,BFA,OSM,12.31943,-1.52996,,,
Ecole primaire georges Namoano,school,Burkina Faso,BFA,OSM,12.32246,-1.53539,,,
Ecole primaire Managsomde,school,Burkina Faso,BFA,OSM,12.3097,-1.5303,,,
"École ""Neb La Bumbu""",school,Burkina Faso,BFA,OSM,12.3137,-1.52997,,,
"Groupe Scolaire ""Le Roserale""",school,Burkina Faso,BFA,OSM,12.35008,-1.53334,,,
École Koulouba,school,Burkina Faso,BFA,OSM,12.36518,-1.51006,,,
Ecole primaire,school,Burkina Faso,BFA,OSM,13.48495,-2.16967,,,
CEG,school,Burkina Faso,BFA,OSM,13.46838,-2.17584,,,
Ecole primaire,school,Burkina Faso,BFA,OSM,13.46577,-2.17689,,,
Ecole primaire Yaoghin,school,Burkina Faso,BFA,OSM,13.45173,-2.15942,,,
Ecole primaire,school,Burkina Faso,BFA,OSM,13.4386,-2.12632,,,
Ecole primaire,school,Burkina Faso,BFA,OSM,13.43857,-2.08626,,,
Ecole primaire,school,Burkina Faso,BFA,OSM,13.387,-2.3479,,,
CEG,school,Burkina Faso,BFA,OSM,13.38359,-2.33907,,,
École Belemtissé,school,Burkina Faso,BFA,OSM,12.36736,-1.4994,,,
Ecole primaire,school,Burkina Faso,BFA,OSM,13.38643,-2.30438,,,
Médersa,school,Burkina Faso,BFA,OSM,13.41579,-2.30867,,,
Ecole primaire,school,Burkina Faso,BFA,OSM,13.42038,-2.30419,,,
Ecole primaire,school,Burkina Faso,BFA,OSM,13.42036,-2.30187,,,
CEG,school,Burkina Faso,BFA,OSM,13.41702,-2.30211,,,
Ecole primaire,school,Burkina Faso,BFA,OSM,13.38421,-2.3466,,,
Ecole primaire,school,Burkina Faso,BFA,OSM,13.4202,-2.08175,,,
Médersa,school,Burkina Faso,BFA,OSM,13.4181,-2.08467,,,
Médersa,school,Burkina Faso,BFA,OSM,13.40589,-2.15861,,,
Ecole primaire,school,Burkina Faso,BFA,OSM,13.40678,-2.15615,,,
Ecole primaire,school,Burkina Faso,BFA,OSM,13.41209,-2.19762,,,
Ecole primaire,school,Burkina Faso,BFA,OSM,13.41025,-2.19356,,,
Ecole primaire,school,Burkina Faso,BFA,OSM,13.41059,-2.21917,,,
Ecole primaire,school,Burkina Faso,BFA,OSM,13.40839,-2.20787,,,
Ecole primaire,school,Burkina Faso,BFA,OSM,13.46405,-2.11367,,,
Médersa (projet),school,Burkina Faso,BFA,OSM,13.46657,-2.11337,,,
Ecole,school,Burkina Faso,BFA,OSM,13.407,-2.37268,,,
Collège communal,school,Burkina Faso,BFA,OSM,13.39054,-2.35552,,,
Ecole primaire,school,Burkina Faso,BFA,OSM,14.78689,-0.13411,,,
Ecole primaire,school,Burkina Faso,BFA,OSM,14.70191,-0.13178,,,
Ecole primaire,school,Burkina Faso,BFA,OSM,14.57061,-0.14915,,,
Ecole primaire,school,Burkina Faso,BFA,OSM,12.19342,-0.2695,,,
Ecole primaire,school,Burkina Faso,BFA,OSM,12.18874,-0.28732,,,
CEG,school,Burkina Faso,BFA,OSM,12.18981,-0.26587,,,
Collège Kaintèga,school,Burkina Faso,BFA,OSM,12.16428,-0.26664,,,
Ecole primaire,school,Burkina Faso,BFA,OSM,12.13995,-0.23007,,,
Ecole primaire,school,Burkina Faso,BFA,OSM,12.15028,-0.22787,,,
Ecole primaire,school,Burkina Faso,BFA,OSM,13.41697,-2.31135,,,
Ecole primaire Ouédeancin B,school,Burkina Faso,BFA,OSM,13.41698,-2.31799,,,
Ecole primaire,school,Burkina Faso,BFA,OSM,13.41641,-2.33533,,,
Ecole primaire,school,Burkina Faso,BFA,OSM,13.42953,-2.37209,,,
Ecole primaire,school,Burkina Faso,BFA,OSM,13.49366,-2.29856,,,
Ecole primaire,school,Burkina Faso,BFA,OSM,12.17613,-0.26744,,,
Collège communal,school,Burkina Faso,BFA,OSM,13.48884,-2.33098,,,
Ecole primaire Yanga,school,Burkina Faso,BFA,OSM,13.48466,-2.33059,,,
Ecole primaire,school,Burkina Faso,BFA,OSM,13.50004,-2.34497,,,
Ecole primaire,school,Burkina Faso,BFA,OSM,13.48499,-2.35251,,,
Ecole primaire Nacombgo,school,Burkina Faso,BFA,OSM,13.40666,-2.36676,,,
Ecole primaire Bougoudgo,school,Burkina Faso,BFA,OSM,13.48363,-2.36833,,,
CEG,school,Burkina Faso,BFA,OSM,13.4952,-2.36263,,,
Ecole primaire,school,Burkina Faso,BFA,OSM,13.50122,-2.37407,,,
Ecole primaire,school,Burkina Faso,BFA,OSM,13.4574,-2.37296,,,
CEG,school,Burkina Faso,BFA,OSM,13.45726,-2.24418,,,
CEG,school,Burkina Faso,BFA,OSM,13.44477,-2.24824,,,
Ecole primaire,school,Burkina Faso,BFA,OSM,13.49904,-2.26529,,,
Ecole primaire,school,Burkina Faso,BFA,OSM,13.46053,-2.27441,,,
Ecole primaire,school,Burkina Faso,BFA,OSM,13.49823,-2.36472,,,
Ecole primaire,school,Burkina Faso,BFA,OSM,13.49099,-2.14382,,,
Ecole primaire Towan,school,Burkina Faso,BFA,OSM,10.48177,-2.95986,,,
Ecole primaire,school,Burkina Faso,BFA,OSM,10.49843,-2.89332,,,
Ecole primaire,school,Burkina Faso,BFA,OSM,10.49566,-2.91343,,,
Ecole primaire,school,Burkina Faso,BFA,OSM,13.14735,-2.69002,,,
Ecole primaire,school,Burkina Faso,BFA,OSM,13.13322,-2.66796,,,
Ecole,school,Burkina Faso,BFA,OSM,12.05871,-1.37317,,,
CEG,school,Burkina Faso,BFA,OSM,12.12354,-1.36274,,,
Ecole primaire,school,Burkina Faso,BFA,OSM,13.45826,-2.24511,,,
CEG,school,Burkina Faso,BFA,OSM,12.26765,-1.18635,,,
Ecole primaire,school,Burkina Faso,BFA,OSM,12.26976,-1.19635,,,
Ecole primaire,school,Burkina Faso,BFA,OSM,12.23584,-1.2376,,,
Ecole primaire,school,Burkina Faso,BFA,OSM,12.22858,-1.20615,,,
CEG,school,Burkina Faso,BFA,OSM,12.20259,-1.16021,,,
CEG,school,Burkina Faso,BFA,OSM,13.06081,-2.61503,,,
Ecole primaire,school,Burkina Faso,BFA,OSM,13.06518,-2.6196,,,
Ecole primaire,school,Burkina Faso,BFA,OSM,13.10054,-2.63111,,,
Ecole primaire,school,Burkina Faso,BFA,OSM,12.27129,-1.28665,,,
Ecole primaire,school,Burkina Faso,BFA,OSM,12.20734,-1.24529,,,
CEG,school,Burkina Faso,BFA,OSM,12.20872,-1.24484,,,
Médersa,school,Burkina Faso,BFA,OSM,12.21497,-1.16937,,,
Ecole primaire,school,Burkina Faso,BFA,OSM,12.19257,-1.16121,,,
Médersa,school,Burkina Faso,BFA,OSM,12.18535,-1.16043,,,
Ecole primaire,school,Burkina Faso,BFA,OSM,12.20411,-1.29122,,,
Ecole primaire,school,Burkina Faso,BFA,OSM,12.16571,-1.32814,,,
CEG,school,Burkina Faso,BFA,OSM,12.18856,-1.35282,,,
Médersa,school,Burkina Faso,BFA,OSM,13.50819,-2.16173,,,
Lycée Marien N´Gouabi,school,Burkina Faso,BFA,OSM,12.36663,-1.53359,,,
Ecole primaire Paspanga D,school,Burkina Faso,BFA,OSM,12.37767,-1.51441,,,
Lycée Philippe Zinda Kaboré,school,Burkina Faso,BFA,OSM,12.37468,-1.51798,,,
Prytanée militaire de Kadiogo,school,Burkina Faso,BFA,OSM,12.4811,-1.56592,,,
École Nationale de la Police,school,Burkina Faso,BFA,OSM,12.36874,-1.54705,,,
Université Joseph Ki-Zerbo de Ouagadougou,university,Burkina Faso,BFA,OSM,12.37935,-1.50076,,,
Ecole primaire,school,Burkina Faso,BFA,OSM,13.52254,-2.15377,,,
Groupe Scolaire LE PETIT POUCET,school,Burkina Faso,BFA,OSM,12.37147,-1.49561,,,
Médersa,school,Burkina Faso,BFA,OSM,13.47892,-2.16103,,,
Médersa,school,Burkina Faso,BFA,OSM,13.48168,-2.16816,,,
Ecole primaire,school,Burkina Faso,BFA,OSM,13.13268,-2.63231,,,
Médersa,school,Burkina Faso,BFA,OSM,13.13858,-2.59773,,,
Ecole primaire,school,Burkina Faso,BFA,OSM,13.13303,-2.59904,,,
Ecole primaire,school,Burkina Faso,BFA,OSM,13.11144,-2.59654,,,
Ecole primaire,school,Burkina Faso,BFA,OSM,13.05213,-2.59953,,,
Ecole primaire,school,Burkina Faso,BFA,OSM,13.03848,-2.61764,,,
École d'application ENS,school,Burkina Faso,BFA,OSM,12.2699,-2.38127,,,
Ecole primaire,school,Burkina Faso,BFA,OSM,13.10332,-2.60464,,,
Ecole primaire,school,Burkina Faso,BFA,OSM,13.48211,-2.19559,,,
Ecole primaire,school,Burkina Faso,BFA,OSM,13.4459,-2.19558,,,
CEG (Projet),school,Burkina Faso,BFA,OSM,13.44723,-2.19216,,,
Médersa,school,Burkina Faso,BFA,OSM,13.44077,-2.20043,,,
Ecole primaire Ouidi,school,Burkina Faso,BFA,OSM,13.48912,-2.23528,,,
Médersa,school,Burkina Faso,BFA,OSM,13.48569,-2.23336,,,
Ecole primaire,school,Burkina Faso,BFA,OSM,13.45162,-2.24832,,,
CEG,school,Burkina Faso,BFA,OSM,13.09225,-2.60018,,,
Lycée Sangoule lamizana,school,Burkina Faso,BFA,OSM,11.17848,-4.27899,,,
Ecole primaire,school,Burkina Faso,BFA,OSM,13.11015,-2.69708,,,
Ecole primaire,school,Burkina Faso,BFA,OSM,13.06689,-2.68721,,,
Ecole primaire,school,Burkina Faso,BFA,OSM,13.07934,-2.65553,,,
Ecole primaire,school,Burkina Faso,BFA,OSM,12.16993,-1.36253,,,
CEG de Kaya-Tiébélé,school,Burkina Faso,BFA,OSM,11.06569,-1.02265,,,
Bustane-E-Mahdi,school,Burkina Faso,BFA,OSM,12.23595,-1.42937,,,
Ecole,school,Burkina Faso,BFA,OSM,12.25735,-1.42462,,,
Ecole primaire,school,Burkina Faso,BFA,OSM,13.47679,-2.16259,,,
Ecole,school,Burkina Faso,BFA,OSM,12.23909,-1.41871,,,
Ecole primaire,school,Burkina Faso,BFA,OSM,13.51465,-2.17834,,,
Ecole primaire,school,Burkina Faso,BFA,OSM,13.52079,-2.14859,,,
Ecole primaire,school,Burkina Faso,BFA,OSM,13.40744,-2.25947,,,
Ecole primaire,school,Burkina Faso,BFA,OSM,13.42963,-2.11514,,,
Ecole primaire,school,Burkina Faso,BFA,OSM,13.43084,-2.27689,,,
Ecole primaire,school,Burkina Faso,BFA,OSM,13.43501,-2.22182,,,
CEG,school,Burkina Faso,BFA,OSM,13.48445,-2.15402,,,
Ecole primaire,school,Burkina Faso,BFA,OSM,12.26151,-1.43434,,,
Ecole primaire,school,Burkina Faso,BFA,OSM,12.26004,-1.5598,,,
Ecole Normale Supérieure de Koudougou,college,Burkina Faso,BFA,OSM,12.24282,-2.39628,,,
Foyer d'accueil des étudiants de Gampéla,college,Burkina Faso,BFA,OSM,12.41928,-1.36617,,,
École primaire de Téonsgo,school,Burkina Faso,BFA,OSM,13.43811,-2.55748,,,
École primaire de Nango-Foulcé A,school,Burkina Faso,BFA,OSM,13.45162,-2.5895,,,
Lycée Mixe d'accard-Ville,school,Burkina Faso,BFA,OSM,11.18681,-4.31596,,,
Académie ASTEC de football,school,Burkina Faso,BFA,OSM,12.13138,-1.36511,,,
CEG,school,Burkina Faso,BFA,OSM,11.8303,-4.73899,,,
Centre de Formation du CMA de Dafra,school,Burkina Faso,BFA,OSM,11.19705,-4.25393,,,
Lycée Privé Bethanie II,school,Burkina Faso,BFA,OSM,11.17044,-4.31008,,,
Ecole primaire,school,Burkina Faso,BFA,OSM,12.36026,-1.44091,,,
École Maternelle de Soum,school,Burkina Faso,BFA,OSM,12.61478,-2.2826,,,
Lycée de Baré,school,Burkina Faso,BFA,OSM,11.09387,-4.12091,,,
École Primaire Publique,school,Burkina Faso,BFA,OSM,11.08229,-4.09891,,,
Ecole primaire,school,Burkina Faso,BFA,OSM,12.31171,-1.58293,,,
Lycée Professionnel Régional Doma SOME de Gaoua,school,Burkina Faso,BFA,OSM,10.34041,-3.21883,,,
Lycée Mixe d'accard-Ville,school,Burkina Faso,BFA,OSM,11.18662,-4.31571,,,
Ecole Primaire Privé la Grâce,school,Burkina Faso,BFA,OSM,10.64715,-4.74431,,,
Collège Moderne Technique de la Comoé,school,Burkina Faso,BFA,OSM,10.6458,-4.74207,,,
Lycée Privé Itoma HEMA,school,Burkina Faso,BFA,OSM,10.64449,-4.74144,,,
Ecole Primaire Privé Pentecôte,school,Burkina Faso,BFA,OSM,10.64793,-4.73657,,,
Lycée de Tatana,school,Burkina Faso,BFA,OSM,10.6421,-4.73641,,,
Lycée Privé CSFO,school,Burkina Faso,BFA,OSM,10.64435,-4.73347,,,
Garderie de Tatana,school,Burkina Faso,BFA,OSM,10.64498,-4.73231,,,
Lycée Privé Saint Augustin,school,Burkina Faso,BFA,OSM,10.64784,-4.74307,,,
Centre socio-éducatif El Rayane,school,Burkina Faso,BFA,OSM,11.17194,-1.11972,,,
École primaire publique de l'amitié Léo Nassau,school,Burkina Faso,BFA,OSM,11.08394,-2.09521,,,
University of United Popular Nations U.U.P.N.,university,Burkina Faso,BFA,OSM,12.36465,-1.53377,,,
Lycée Yamwaya (Antoine Roche),school,Burkina Faso,BFA,OSM,13.57411,-2.40599,,,
Ecole primaire de Kaya-Kantiolo,school,Burkina Faso,BFA,OSM,11.05842,-1.01905,,,
École primaire de Poin,school,Burkina Faso,BFA,OSM,11.40223,-2.33566,,,
Lycée Martin Luther King Ziniare,school,Burkina Faso,BFA,OSM,12.57995,-1.32064,,,
ENSIF,school,Burkina Faso,BFA,OSM,12.07139,0.34801,,,
Ecole Supérieure Polytechnique de Kaya,university,Burkina Faso,BFA,OSM,13.0409,-1.08571,,,
Centre d'éveil et d'education préscolaire de Léo,kindergarten,Burkina Faso,BFA,OSM,11.10016,-2.10369,,,
Lycée Naaba Belem Goumma,school,Burkina Faso,BFA,OSM,11.84393,-0.48725,,,
École Primaire de Gando,school,Burkina Faso,BFA,OSM,11.84169,-0.48714,,,
Lycée Schorge,school,Burkina Faso,BFA,OSM,12.21749,-2.37845,,,
Complexe scolaire Saint Moïse,school,Burkina Faso,BFA,OSM,12.31676,-1.59755,,,
Jardin d'enfants,kindergarten,Burkina Faso,BFA,OSM,12.29879,-1.61654,,,
École primaire publique A - Batiment 2,school,Burkina Faso,BFA,OSM,12.19155,-2.60145,,,
École primaire publique A - Batiment 1,school,Burkina Faso,BFA,OSM,12.19189,-2.6015,,,
Lycee departemental du Seguenega,school,Burkina Faso,BFA,OSM,13.42973,-1.94934,,,
Ecole B,school,Burkina Faso,BFA,OSM,11.75312,-3.31352,,,
Ecole B,school,Burkina Faso,BFA,OSM,11.75302,-3.31323,,,
Ecole A (bâtiment2),school,Burkina Faso,BFA,OSM,11.74407,-3.2988,,,
Ecole A (bâtiment1),school,Burkina Faso,BFA,OSM,11.74427,-3.29796,,,
Ecole A (bâtiment3),school,Burkina Faso,BFA,OSM,11.74395,-3.29917,,,
Salles de classe (LDB),college,Burkina Faso,BFA,OSM,11.75358,-3.31646,,,
Laboratoire,school,Burkina Faso,BFA,OSM,11.76576,-2.93217,,,
Administration du Lycée départemental de Bagassi,college,Burkina Faso,BFA,OSM,11.75209,-3.31719,,,
Salles de classe (LDB),college,Burkina Faso,BFA,OSM,11.75264,-3.31743,,,
Salles de classe (LDB),college,Burkina Faso,BFA,OSM,11.75301,-3.31749,,,
Salles de classe (LDB),college,Burkina Faso,BFA,OSM,11.75294,-3.31703,,,
Salles de classe (LDB),college,Burkina Faso,BFA,OSM,11.75364,-3.3168,,,
École primaire I,school,Burkina Faso,BFA,OSM,11.16786,-1.1496,,,
Centre scolaire Éducation sans frontière,school,Burkina Faso,BFA,OSM,11.17073,-1.13329,,,
École Philadelphie,school,Burkina Faso,BFA,OSM,11.17741,-1.14275,,,
Centre de Formation Arts et Métiers PK Victor,school,Burkina Faso,BFA,OSM,11.17366,-1.12761,,,
Lycée Provincial de PÔ,school,Burkina Faso,BFA,OSM,11.17129,-1.12706,,,
Lycée Santa,school,Burkina Faso,BFA,OSM,10.28703,-4.90441,,,
Jardin d'enfants,kindergarten,Burkina Faso,BFA,OSM,11.07607,-5.29976,,,
EPP BANDIE ZERBO,school,Burkina Faso,BFA,OSM,13.08001,-3.06106,,,
Complexe scolaire Wend-kuuni Nooma,school,Burkina Faso,BFA,OSM,12.31214,-1.61469,,,
Collège Notre Dame,school,Burkina Faso,BFA,OSM,11.17459,-1.12929,,,
Ecole,school,Burkina Faso,BFA,OSM,12.43004,-1.42226,,,
Collège privé,school,Burkina Faso,BFA,OSM,12.65707,-2.09589,,,
École primaire de Rounde Soala,school,Burkina Faso,BFA,OSM,12.65207,-1.96219,,,
École primaire de Sibago,school,Burkina Faso,BFA,OSM,12.71477,-2.14791,,,
École primaire de Konkuissin,school,Burkina Faso,BFA,OSM,12.66758,-2.24316,,,
École primaire de Koumbango,school,Burkina Faso,BFA,OSM,13.42022,-1.57232,,,
École primaire de Bogonam,school,Burkina Faso,BFA,OSM,13.37846,-1.67939,,,
École,school,Burkina Faso,BFA,OSM,13.56554,-1.50069,,,
École primaire de Ouazellé,school,Burkina Faso,BFA,OSM,13.18355,-1.57014,,,
École primaire de Sanhoui,school,Burkina Faso,BFA,OSM,13.18,-1.39285,,,
École primaire de Souryala,school,Burkina Faso,BFA,OSM,13.20742,-1.43296,,,
École primaire de Lourgou,school,Burkina Faso,BFA,OSM,13.40579,-1.68443,,,
École primaire de Sam,school,Burkina Faso,BFA,OSM,13.41352,-1.67269,,,
Lycée de Lourgou,school,Burkina Faso,BFA,OSM,13.41024,-1.68397,,,
Maternelle de Pella,kindergarten,Burkina Faso,BFA,OSM,12.58405,-2.05246,,,
École primaire de Dapoya Pella,school,Burkina Faso,BFA,OSM,12.57601,-2.01992,,,
École primaire de Soulou,school,Burkina Faso,BFA,OSM,12.63122,-2.06356,,,
CEG de Kalwaka Zoetgomdé,school,Burkina Faso,BFA,OSM,12.57434,-2.17277,,,
École Primaire de Gogo Nazoanga,school,Burkina Faso,BFA,OSM,12.63621,-2.12636,,,
École Primaire Nazoanga B,school,Burkina Faso,BFA,OSM,12.60237,-2.1477,,,
CEG de Soum,school,Burkina Faso,BFA,OSM,12.61118,-2.28379,,,
Lycée Wendpuire de Saaba,school,Burkina Faso,BFA,OSM,12.38127,-1.42255,,,
Ecole Primaire de Kyou,school,Burkina Faso,BFA,OSM,12.6691,-2.03466,,,
Centre de formation religieux,college,Burkina Faso,BFA,OSM,12.16649,-2.34713,,,
CEG de Nanoro,school,Burkina Faso,BFA,OSM,12.68696,-2.17431,,,
School Provinciale,school,Burkina Faso,BFA,OSM,10.28486,-4.90917,,,
École primaire de Tengsobengo,school,Burkina Faso,BFA,OSM,12.5764,-2.11782,,,
École Primaire de Pelbilin,school,Burkina Faso,BFA,OSM,12.5246,-2.01045,,,
CEG de Godo Pella,school,Burkina Faso,BFA,OSM,12.61718,-1.98783,,,
École primaire Séguédin B,school,Burkina Faso,BFA,OSM,12.68574,-2.02107,,,
CEG de Goala,school,Burkina Faso,BFA,OSM,12.56097,-2.08655,,,
École primaire de Lourfa,school,Burkina Faso,BFA,OSM,13.49613,-1.62905,,,
École primaire de Kouka,school,Burkina Faso,BFA,OSM,13.43328,-1.61322,,,
École Primaire de Bassyam,school,Burkina Faso,BFA,OSM,12.66274,-2.14411,,,
École primaire de Zinigma,school,Burkina Faso,BFA,OSM,13.40488,-1.71634,,,
École primaire de Darbiti 1,school,Burkina Faso,BFA,OSM,13.43287,-1.75703,,,
École primaire de Temnaoré-Foulbé,school,Burkina Faso,BFA,OSM,13.43787,-1.73663,,,
École primaire de Temnaoré,school,Burkina Faso,BFA,OSM,13.42461,-1.73561,,,
École primaire de Nongsom,school,Burkina Faso,BFA,OSM,13.44265,-1.67388,,,
École primaire Mara Soaw,school,Burkina Faso,BFA,OSM,12.57033,-2.16647,,,
École primaire de Kolonkom,school,Burkina Faso,BFA,OSM,12.55055,-2.25137,,,
CEG de Soaw,school,Burkina Faso,BFA,OSM,12.52401,-2.17358,,,
École primaire de Rambo-Watinooma,school,Burkina Faso,BFA,OSM,13.41535,-1.62288,,,
Sainte Andrea,college,Burkina Faso,BFA,OSM,11.17225,-4.36102,,,
Lycée Provincial de Djibo (LPD),school,Burkina Faso,BFA,OSM,14.09031,-1.62149,,,
Complexe Scolaire Bangre Veenem,school,Burkina Faso,BFA,OSM,12.21521,-2.40019,,,
Complexe Scolaire Rockseed,school,Burkina Faso,BFA,OSM,11.22792,-4.24688,,,
CEG de Ninga,school,Burkina Faso,BFA,OSM,13.42744,-2.51047,,,
Ecole primaire de Todiam,school,Burkina Faso,BFA,OSM,13.69007,-2.14381,,,
Centre du Père Gilbert,school,Burkina Faso,BFA,OSM,12.22037,-1.35363,,,
Burkina Institute of Technology,college,Burkina Faso,BFA,OSM,12.21823,-2.37845,,,
Ecole primaire publique Djibo C,school,Burkina Faso,BFA,OSM,14.1067,-1.62529,,,
Centre Universitaire Polytechnique de Dédougou,university,Burkina Faso,BFA,OSM,12.45784,-3.47699,,,
Université Aube Nouvelle,university,Burkina Faso,BFA,OSM,11.20504,-4.31831,,,
ESSUPJ,university,Burkina Faso,BFA,OSM,12.38298,-1.47702,,,
Institut Africaine de Management,university,Burkina Faso,BFA,OSM,11.18897,-4.32423,,,
Université Evangélique du Kadiogo,university,Burkina Faso,BFA,OSM,12.37293,-1.4956,,,
U-AUBEN,university,Burkina Faso,BFA,OSM,11.18983,-4.32407,,,
Université Thomas Sankara,university,Burkina Faso,BFA,OSM,12.47014,-1.347,,,
Institut Burkinabè des Arts et Métiers,university,Burkina Faso,BFA,OSM,12.40778,-1.49734,,,
Detachement Université ouaga II,university,Burkina Faso,BFA,OSM,12.36307,-1.48018,,,
Ecole Supérieure de Commerce et d’Informatique de Gestion,university,Burkina Faso,BFA,OSM,12.362,-1.54393,,,
Université Privée de Ouagadougou,university,Burkina Faso,BFA,OSM,12.41201,-1.46273,,,
École Doctorale Université Thomas Sankara,university,Burkina Faso,BFA,OSM,12.37532,-1.48652,,,
"Institut panafricain d'étude et de recherche sur les médias, l'information et la communication",university,Burkina Faso,BFA,OSM,12.38185,-1.46733,,,
Institut Supérieur des Filières Professionnalisantes (ISFP);ISFP;Université;Cour de ISFP,university,Burkina Faso,BFA,OSM,11.1725,-4.3411,,,
Ecole primaire de Nango Yarcé,school,Burkina Faso,BFA,OSM,13.46859,-2.58683,,,
Université Nazi Boni de Bobo,university,Burkina Faso,BFA,OSM,11.18148,-4.36302,,,
Lycée privé la voix du peuple,school,Burkina Faso,BFA,OSM,12.42029,-1.53931,,,
Lycée Lumière du faso,school,Burkina Faso,BFA,OSM,12.42199,-1.53543,,,
Lycée Bangporé,school,Burkina Faso,BFA,OSM,12.42439,-1.53494,,,
Lyée privé mixte Montaigne,school,Burkina Faso,BFA,OSM,12.36401,-1.54279,,,
Lycée Nelson Mandela,school,Burkina Faso,BFA,OSM,12.37643,-1.51493,,,
Ecole primaire Paspanga C,school,Burkina Faso,BFA,OSM,12.37825,-1.51532,,,
ECAOYYA Norghin B,school,Burkina Faso,BFA,OSM,12.38472,-1.52815,,,
Lycée Provincial de Boromo,school,Burkina Faso,BFA,OSM,11.76522,-2.93254,,,
Ecole du camp,school,Burkina Faso,BFA,OSM,12.36983,-1.53319,,,
École Wayalgin D,school,Burkina Faso,BFA,OSM,12.39753,-1.46092,,,
Ecole primaire,school,Burkina Faso,BFA,OSM,12.26449,-1.77652,,,
Ecole primaire,school,Burkina Faso,BFA,OSM,13.56536,-2.40908,,,
CEG/Lycée,school,Burkina Faso,BFA,OSM,13.53883,-2.417,,,
Ecole primaire,school,Burkina Faso,BFA,OSM,13.54063,-2.41984,,,
CEG/Lycée,school,Burkina Faso,BFA,OSM,13.5414,-2.41874,,,
Ecole primaire,school,Burkina Faso,BFA,OSM,13.54686,-2.4318,,,
Ecole franco-arabe,school,Burkina Faso,BFA,OSM,13.54473,-2.42768,,,
Ecole primaire de Ramessé,school,Burkina Faso,BFA,OSM,13.45653,-2.48392,,,
Ecole primaire d'Ippo,school,Burkina Faso,BFA,OSM,13.46002,-2.47498,,,
Ecole primaire de Rallo,school,Burkina Faso,BFA,OSM,13.48284,-2.51517,,,
Ecole franco-arabe,school,Burkina Faso,BFA,OSM,13.48796,-2.51357,,,
Ecole primaire,school,Burkina Faso,BFA,OSM,13.47882,-2.51562,,,
CEG/Lycée,school,Burkina Faso,BFA,OSM,13.58046,-2.41402,,,
Ecole primaire,school,Burkina Faso,BFA,OSM,13.57895,-2.40831,,,
Ecole primaire,school,Burkina Faso,BFA,OSM,13.57688,-2.40442,,,
Ecole primaire de Mopéléguin,school,Burkina Faso,BFA,OSM,13.44689,-2.48464,,,
Ecole primaire,school,Burkina Faso,BFA,OSM,13.67047,-2.3391,,,
Ecole primaire,school,Burkina Faso,BFA,OSM,13.67368,-2.33402,,,
Ecole primaire,school,Burkina Faso,BFA,OSM,13.54946,-2.44108,,,
Centre de formation,college,Burkina Faso,BFA,OSM,13.56708,-2.39705,,,
Ecole,school,Burkina Faso,BFA,OSM,13.56646,-2.38373,,,
Complexe scolaire,school,Burkina Faso,BFA,OSM,13.56935,-2.39231,,,
Complexe scolaire,school,Burkina Faso,BFA,OSM,13.55098,-2.41176,,,
Complexe scolaire,school,Burkina Faso,BFA,OSM,13.55573,-2.40988,,,
Ecole franco-arabe,school,Burkina Faso,BFA,OSM,13.56684,-2.39993,,,
Ecole,school,Burkina Faso,BFA,OSM,13.55211,-2.43272,,,
Ecole franco-arabe,school,Burkina Faso,BFA,OSM,13.55146,-2.43069,,,
Ecole,school,Burkina Faso,BFA,OSM,13.55214,-2.42963,,,
CEG/Lycée,school,Burkina Faso,BFA,OSM,13.55731,-2.41614,,,
Collège privé Sainte-Marie,school,Burkina Faso,BFA,OSM,13.56625,-2.41494,,,
Compexe Educatif Zoodo,school,Burkina Faso,BFA,OSM,13.55144,-2.40351,,,
Ecole primaire,school,Burkina Faso,BFA,OSM,13.56595,-2.40204,,,
Ecole primaire,school,Burkina Faso,BFA,OSM,13.56533,-2.40182,,,
Ecole primaire,school,Burkina Faso,BFA,OSM,13.54874,-2.43248,,,
Ecole primaire de Zimba,school,Burkina Faso,BFA,OSM,13.50513,-2.45,,,
Ecole primaire,school,Burkina Faso,BFA,OSM,13.49415,-2.44353,,,
Ecole primaire de Bouri,school,Burkina Faso,BFA,OSM,13.52262,-2.43936,,,
Ecole primaire,school,Burkina Faso,BFA,OSM,13.52656,-2.50388,,,
Ecple primaire de Rissi,school,Burkina Faso,BFA,OSM,13.52439,-2.50988,,,
Ecple primaire de Soubo,school,Burkina Faso,BFA,OSM,13.50185,-2.48955,,,
Ecole,school,Burkina Faso,BFA,OSM,13.55617,-2.46056,,,
Ecole primaire de Benbela,school,Burkina Faso,BFA,OSM,13.55332,-2.48727,,,
ENEP de Ouahigouya,college,Burkina Faso,BFA,OSM,13.5726,-2.39762,,,
CEG,school,Burkina Faso,BFA,OSM,13.53362,-2.38928,,,
Ecple (Projet),school,Burkina Faso,BFA,OSM,13.53699,-2.39124,,,
Ecole,school,Burkina Faso,BFA,OSM,13.53395,-2.39326,,,
Ecole,school,Burkina Faso,BFA,OSM,13.53911,-2.408,,,
Lycée/CEG,school,Burkina Faso,BFA,OSM,13.53874,-2.40415,,,
Ecole primaire de Bissigaye B,school,Burkina Faso,BFA,OSM,13.58854,-2.48384,,,
Ecole primaire de Bissigaye A,school,Burkina Faso,BFA,OSM,13.58947,-2.4762,,,
Ecole,school,Burkina Faso,BFA,OSM,13.56861,-2.45646,,,
Ecole primaire,school,Burkina Faso,BFA,OSM,13.55947,-2.47652,,,
Lycée/CEG,school,Burkina Faso,BFA,OSM,13.53108,-2.40536,,,
Ecole primaire,school,Burkina Faso,BFA,OSM,13.53415,-2.40707,,,
Complexe scolaire,school,Burkina Faso,BFA,OSM,13.5177,-2.39496,,,
Ecole franco-arabe,school,Burkina Faso,BFA,OSM,13.51454,-2.39543,,,
Ecole franco-arabe,school,Burkina Faso,BFA,OSM,13.50465,-2.40888,,,
CEG de Somiaga,school,Burkina Faso,BFA,OSM,13.5126,-2.4007,,,
Ecole primaire Nabdogo,school,Burkina Faso,BFA,OSM,13.50274,-2.41203,,,
Ecole primaire Somiaga A,school,Burkina Faso,BFA,OSM,13.50436,-2.40205,,,
Ecole primaire,school,Burkina Faso,BFA,OSM,13.49568,-2.4697,,,
CEG,school,Burkina Faso,BFA,OSM,13.49997,-2.40167,,,
École primaire de Sissamba,school,Burkina Faso,BFA,OSM,13.50387,-2.46405,,,
Ecole primaire,school,Burkina Faso,BFA,OSM,13.56704,-2.42227,,,
Ecole primaire,school,Burkina Faso,BFA,OSM,13.57167,-2.42226,,,
Lycée Municipal de Ouahigouya,school,Burkina Faso,BFA,OSM,13.56594,-2.42731,,,
Ecole primaire,school,Burkina Faso,BFA,OSM,13.56679,-2.42928,,,
Ecole primaire,school,Burkina Faso,BFA,OSM,13.5654,-2.42826,,,
Ecole primaire Bougoudgo,school,Burkina Faso,BFA,OSM,13.52969,-2.42582,,,
Ecole primaire Somiaga B,school,Burkina Faso,BFA,OSM,13.50456,-2.40098,,,
Ecole primaire,school,Burkina Faso,BFA,OSM,13.70212,-2.43126,,,
Ecole primaire,school,Burkina Faso,BFA,OSM,13.65558,-2.40154,,,
Lycée de Bogoya,school,Burkina Faso,BFA,OSM,13.62333,-2.41307,,,
Ecole primaire Tanlili,school,Burkina Faso,BFA,OSM,13.63628,-2.41383,,,
Ecole priimaire,school,Burkina Faso,BFA,OSM,12.23556,-1.90503,,,
Petit Bale,school,Burkina Faso,BFA,OSM,11.74416,-2.95731,,,
Ecole,school,Burkina Faso,BFA,OSM,12.19922,-1.91455,,,
Ecole primaire de Douré,school,Burkina Faso,BFA,OSM,12.21331,-1.9069,,,
Lycée/CEG,school,Burkina Faso,BFA,OSM,13.67185,-2.34749,,,
Ecole primaire Zinkin,school,Burkina Faso,BFA,OSM,13.63218,-2.35606,,,
CEG de Rikou,school,Burkina Faso,BFA,OSM,13.63204,-2.35256,,,
Ecole primaire de Rikou,school,Burkina Faso,BFA,OSM,13.63784,-2.36364,,,
Ecole franco-arabe,school,Burkina Faso,BFA,OSM,13.63827,-2.35654,,,
Ecole primaire Bangarin,school,Burkina Faso,BFA,OSM,13.64187,-2.34469,,,
Ecole primaire de Liligomdé,school,Burkina Faso,BFA,OSM,13.61117,-2.3762,,,
Ecole primaire,school,Burkina Faso,BFA,OSM,13.66553,-2.3767,,,
Ecole primaire,school,Burkina Faso,BFA,OSM,13.66729,-2.37545,,,
Ecole primaire,school,Burkina Faso,BFA,OSM,12.24251,-1.80652,,,
Ecole primaire,school,Burkina Faso,BFA,OSM,12.25359,-1.86582,,,
Ecole priimaire,school,Burkina Faso,BFA,OSM,12.24329,-1.89193,,,
Ecole priimaire de Pitmoaga,school,Burkina Faso,BFA,OSM,12.24711,-1.88502,,,
CEG de Pitmoaga,school,Burkina Faso,BFA,OSM,12.24876,-1.88071,,,
Ecole priimaire de Pitmoaga,school,Burkina Faso,BFA,OSM,12.23829,-1.87628,,,
Ecole primaire de Tamnéré,school,Burkina Faso,BFA,OSM,12.22743,-1.89189,,,
Ecole primaire,school,Burkina Faso,BFA,OSM,12.1657,-2.02826,,,
Ecole primaire de Nimpoui,school,Burkina Faso,BFA,OSM,12.1643,-2.03074,,,
CEG de Sodin,school,Burkina Faso,BFA,OSM,13.70879,-2.42783,,,
Ecole franco-arabe,school,Burkina Faso,BFA,OSM,12.15635,-2.0447,,,
Ecole primaire de Tanghin-Wobdo,school,Burkina Faso,BFA,OSM,12.15834,-2.04395,,,
CEG/Lycée,school,Burkina Faso,BFA,OSM,13.55212,-2.45951,,,
Ecole primaire,school,Burkina Faso,BFA,OSM,13.75244,-2.07141,,,
Projet d'école,school,Burkina Faso,BFA,OSM,13.74672,-2.0602,,,
Ecole primaire Nong-Nééré,school,Burkina Faso,BFA,OSM,13.67742,-2.42356,,,
Ecole primaire de Cissin,school,Burkina Faso,BFA,OSM,13.68587,-2.42367,,,
Ecole primaire,school,Burkina Faso,BFA,OSM,13.69673,-2.41647,,,
CEG de Tanghin-Wobdo,school,Burkina Faso,BFA,OSM,12.15887,-2.041,,,
CEG de Bogoya,school,Burkina Faso,BFA,OSM,13.63724,-2.41268,,,
Ecole primaire,school,Burkina Faso,BFA,OSM,13.63764,-2.40228,,,
Ecole primaire,school,Burkina Faso,BFA,OSM,13.63275,-2.42298,,,
Ecole franco-arabe,school,Burkina Faso,BFA,OSM,13.63645,-2.42396,,,
Ecole primaire,school,Burkina Faso,BFA,OSM,13.61054,-2.42634,,,
CEG/Lycée,school,Burkina Faso,BFA,OSM,13.56808,-2.40186,,,
Ecole primaire,school,Burkina Faso,BFA,OSM,13.54701,-2.38634,,,
Ecole primaire,school,Burkina Faso,BFA,OSM,13.54096,-2.38874,,,
Ecole primaire,school,Burkina Faso,BFA,OSM,13.67253,-2.37073,,,
Ecole primaire,school,Burkina Faso,BFA,OSM,13.54702,-2.36939,,,
Ecole primaire du Secteur 15,school,Burkina Faso,BFA,OSM,13.54585,-2.36848,,,
Ecole primaire,school,Burkina Faso,BFA,OSM,13.53352,-2.35204,,,
Ecole primaire Nakombgo,school,Burkina Faso,BFA,OSM,13.54321,-2.32999,,,
Ecole franco-arabe,school,Burkina Faso,BFA,OSM,13.54049,-2.32888,,,
Ecole primaire Wend-Puiré,school,Burkina Faso,BFA,OSM,13.58554,-2.41881,,,
Ecole primaire,school,Burkina Faso,BFA,OSM,13.58435,-2.42067,,,
Ecole primaire Mossin,school,Burkina Faso,BFA,OSM,13.67055,-2.34569,,,
Ecole primaire,school,Burkina Faso,BFA,OSM,13.53921,-2.37877,,,
Ecole primaire,school,Burkina Faso,BFA,OSM,13.66786,-2.37112,,,
CEG de Youba,school,Burkina Faso,BFA,OSM,13.66101,-2.37799,,,
Ecole,school,Burkina Faso,BFA,OSM,12.20923,-1.85132,,,
École Internationale Madina Garçon,school,Burkina Faso,BFA,OSM,12.29324,-1.46475,,,
Collège et Lycée,school,Burkina Faso,BFA,OSM,12.21568,-2.39904,,,
Maternelle,kindergarten,Burkina Faso,BFA,OSM,12.21492,-2.40044,,,
Ecole Primaire,school,Burkina Faso,BFA,OSM,12.21431,-2.40145,,,
Ecole primaire,school,Burkina Faso,BFA,OSM,13.54862,-2.44153,,,
Ecole franco-arabe,school,Burkina Faso,BFA,OSM,13.55876,-2.40433,,,
Ecole primaire de Baporé,school,Burkina Faso,BFA,OSM,13.5684,-2.35325,,,
Ecole primaire,school,Burkina Faso,BFA,OSM,13.57356,-2.38285,,,
Ecole primaire,school,Burkina Faso,BFA,OSM,13.58208,-2.37807,,,
Complexe scolaire Pella,school,Burkina Faso,BFA,OSM,13.57519,-2.43436,,,
CEG/Lycée,school,Burkina Faso,BFA,OSM,13.57967,-2.42548,,,
CEG/Lycée,school,Burkina Faso,BFA,OSM,13.57753,-2.42068,,,
Ecole primaire,school,Burkina Faso,BFA,OSM,13.56451,-2.40607,,,
Ecole primaire de Zekin,school,Burkina Faso,BFA,OSM,13.56467,-2.33015,,,
Ecole primaire de Yirtaoré,school,Burkina Faso,BFA,OSM,13.35941,-2.52872,,,
Ecole primaire de Piga-Songdin,school,Burkina Faso,BFA,OSM,13.34402,-2.58729,,,
Ecole primaire de Rassandogo,school,Burkina Faso,BFA,OSM,13.61799,-2.6213,,,
Ecole primaire de Keleguérima,school,Burkina Faso,BFA,OSM,13.62995,-2.63687,,,
Ecole franco-arabe,school,Burkina Faso,BFA,OSM,13.6466,-2.6205,,,
Ecole primaire de Touya,school,Burkina Faso,BFA,OSM,13.64684,-2.61849,,,
Ecole primaire de Loubré,school,Burkina Faso,BFA,OSM,13.63268,-2.59886,,,
Lycée Moderne de l'Amitié (NEEED),school,Burkina Faso,BFA,OSM,13.56555,-2.45463,,,
Ecole primaire de Boundoukamba,school,Burkina Faso,BFA,OSM,13.54205,-2.61916,,,
Ecole primaire de Somlawa,school,Burkina Faso,BFA,OSM,13.57637,-2.63577,,,
Ecole primaire,school,Burkina Faso,BFA,OSM,13.57917,-2.67187,,,
Ecole franco-arabe,school,Burkina Faso,BFA,OSM,13.47738,-2.59627,,,
Ecole primaire,school,Burkina Faso,BFA,OSM,13.51334,-2.63794,,,
Ecole primaire de Yaoua,school,Burkina Faso,BFA,OSM,13.49545,-2.56617,,,
CEG de Tangaye,school,Burkina Faso,BFA,OSM,13.54082,-2.53803,,,
Ecole primaire,school,Burkina Faso,BFA,OSM,13.53559,-2.54484,,,
Ecole primaire de Goko,school,Burkina Faso,BFA,OSM,13.68019,-2.67558,,,
Ecole primaire,school,Burkina Faso,BFA,OSM,14.61087,-0.69771,,,
Ecole primaire,school,Burkina Faso,BFA,OSM,14.6091,-0.62282,,,
Ecole primaire,school,Burkina Faso,BFA,OSM,14.60461,-0.71186,,,
Ecole primaire Déou-Centre,school,Burkina Faso,BFA,OSM,14.606,-0.72224,,,
Ecole primaire,school,Burkina Faso,BFA,OSM,13.59864,-2.54289,,,
Ecole primaire de Behm,school,Burkina Faso,BFA,OSM,13.56636,-2.51811,,,
Projet d'école,school,Burkina Faso,BFA,OSM,13.56869,-2.51917,,,
Ecole primaire de Zougouna,school,Burkina Faso,BFA,OSM,13.56226,-2.51664,,,
Groupe Scolaire E.D.I.F II,school,Burkina Faso,BFA,OSM,12.44,-1.60232,,,
Ecole primaire de Lehe,school,Burkina Faso,BFA,OSM,13.44448,-2.53723,,,
Ecole primaire de Goutoula,school,Burkina Faso,BFA,OSM,13.61091,-2.57772,,,
CEG de Namsiguia,school,Burkina Faso,BFA,OSM,13.59858,-2.5577,,,
Ecole primaire de Namsiguiia,school,Burkina Faso,BFA,OSM,13.59077,-2.56706,,,
Ecole primaire de Gosséré A,school,Burkina Faso,BFA,OSM,13.58861,-2.57557,,,
Ecole primaire de Tangwéogo,school,Burkina Faso,BFA,OSM,13.54058,-2.58394,,,
Ecole primaire de Ouoh-Bilo,school,Burkina Faso,BFA,OSM,13.62832,-2.6795,,,
Ecole primaire de Gandalfabou-Guelgobé,school,Burkina Faso,BFA,OSM,14.77006,-0.68348,,,
Ecole primaire de Kouba,school,Burkina Faso,BFA,OSM,13.56659,-2.50504,,,
Ecole primaire de Bouli A,school,Burkina Faso,BFA,OSM,13.66539,-2.71898,,,
Ecole primaire de Bouli B,school,Burkina Faso,BFA,OSM,13.64937,-2.71916,,,
Ecole franco-arabe,school,Burkina Faso,BFA,OSM,13.66321,-2.71987,,,
Ecole primaire de Bouro,school,Burkina Faso,BFA,OSM,13.69204,-2.58708,,,
CEG de Bango,school,Burkina Faso,BFA,OSM,13.66127,-2.533,,,
Lycée Technique Nouvelle Vision,school,Burkina Faso,BFA,OSM,12.39372,-1.58675,,,
Ecole primaire Wouro-Narain,school,Burkina Faso,BFA,OSM,13.66512,-2.5398,,,
Ecole primaire de Pélla,school,Burkina Faso,BFA,OSM,13.64994,-2.64734,,,
Ecole primaire de Nimpouya,school,Burkina Faso,BFA,OSM,13.54698,-2.52684,,,
Ecole primaire Barrai,school,Burkina Faso,BFA,OSM,13.71452,-2.58234,,,
Ecole primaire de Sambabouli,school,Burkina Faso,BFA,OSM,13.73789,-2.77122,,,
Ecole primaire de Méra,school,Burkina Faso,BFA,OSM,13.49405,-2.56269,,,
Ecole primaire de Yalka,school,Burkina Faso,BFA,OSM,13.46829,-2.58689,,,
Ecole primaire,school,Burkina Faso,BFA,OSM,13.57975,-2.69239,,,
Ecole primaire de Tongméné,school,Burkina Faso,BFA,OSM,13.55447,-2.71415,,,
Ecole primaire Bokinda,school,Burkina Faso,BFA,OSM,13.68056,-2.8157,,,
Ecole primaire Ouedransé,school,Burkina Faso,BFA,OSM,13.72967,-2.6706,,,
Ecole primaire de Noden,school,Burkina Faso,BFA,OSM,13.73283,-2.56838,,,
Ecole primaire de Bonsomnoré,school,Burkina Faso,BFA,OSM,13.59127,-2.53639,,,
Ecole franco-arabe,school,Burkina Faso,BFA,OSM,13.57538,-2.66429,,,
Ecole primaire de Kébakoro,school,Burkina Faso,BFA,OSM,13.56798,-2.65838,,,
Ecole primaire de Tougué-Mossi,school,Burkina Faso,BFA,OSM,13.52628,-2.67383,,,
CEG de Tougué-Mossi,school,Burkina Faso,BFA,OSM,13.5309,-2.66814,,,
Ecole primaire de Tougué-Yarsé,school,Burkina Faso,BFA,OSM,13.50881,-2.66189,,,
Ecole primaire de Douma,school,Burkina Faso,BFA,OSM,13.60875,-2.75765,,,
CEG de Douma,school,Burkina Faso,BFA,OSM,13.60749,-2.75383,,,
Ecole primaire de Boukéré,school,Burkina Faso,BFA,OSM,13.66958,-2.75453,,,
Ecole primaire de Kolkoom,school,Burkina Faso,BFA,OSM,13.59812,-2.74426,,,
Ecole primaire de Tangari,school,Burkina Faso,BFA,OSM,13.53481,-2.70898,,,
Ecole primaire Mossin,school,Burkina Faso,BFA,OSM,13.61624,-2.73741,,,
Ecole franco-arabe,school,Burkina Faso,BFA,OSM,13.61507,-2.732,,,
Ecole primaire,school,Burkina Faso,BFA,OSM,13.64433,-2.69428,,,
Ecole primaire de Ouoh-Kanga,school,Burkina Faso,BFA,OSM,13.64315,-2.66534,,,
Ecole primaire de Pella-Tibitiguia,school,Burkina Faso,BFA,OSM,13.62109,-2.64129,,,
CEG de Pella-Tibitiguia,school,Burkina Faso,BFA,OSM,13.6184,-2.6411,,,
Ecole primaire Boulbéré,school,Burkina Faso,BFA,OSM,13.61769,-2.75906,,,
Ecole primaire de Kollel,school,Burkina Faso,BFA,OSM,14.55268,-0.4277,,,
Ecole primaire de Petelgaoudi,school,Burkina Faso,BFA,OSM,14.70125,-0.37775,,,
Ecole primaire de Boullel,school,Burkina Faso,BFA,OSM,14.69322,-0.41813,,,
Ecole primaire de Bangondodji,school,Burkina Faso,BFA,OSM,14.68564,-0.3485,,,
Ecole primaire de Bangao,school,Burkina Faso,BFA,OSM,14.7742,-0.24873,,,
Ecole primaire,school,Burkina Faso,BFA,OSM,13.56408,-2.47895,,,
Ecole primaire de Komsila,school,Burkina Faso,BFA,OSM,13.61333,-2.48153,,,
CEG de Komsila,school,Burkina Faso,BFA,OSM,13.6303,-2.48259,,,
Lycée/CEG municipal de Tangaye,school,Burkina Faso,BFA,OSM,13.5408,-2.56081,,,
Ecole primaire de Bassaouassa,school,Burkina Faso,BFA,OSM,13.62175,-2.5086,,,
Ecole primaire de Timbolo,school,Burkina Faso,BFA,OSM,14.72495,-0.57582,,,
Ecole primaire (détruite),school,Burkina Faso,BFA,OSM,14.51164,-0.75846,,,
Ecole primaire de Tiofa,school,Burkina Faso,BFA,OSM,14.56173,-0.80625,,,
Ecole primaire de Djayel,school,Burkina Faso,BFA,OSM,14.57729,-0.78267,,,
Ecole primaire de Boukessi,school,Burkina Faso,BFA,OSM,14.4397,-0.66706,,,
Ecole primaire de Débélgué-Boula,school,Burkina Faso,BFA,OSM,14.42905,-0.68476,,,
Ecole primaire de Gountawola,school,Burkina Faso,BFA,OSM,14.46153,-0.55153,,,
Ecole primaire de Bronakouli,school,Burkina Faso,BFA,OSM,13.61651,-2.49623,,,
Ecole primaire,school,Burkina Faso,BFA,OSM,13.56028,-2.44935,,,
Ecole primaire Tangazougou,school,Burkina Faso,BFA,OSM,13.56432,-2.4606,,,
Ecole primaire de Zamioro,school,Burkina Faso,BFA,OSM,13.66567,-2.47707,,,
Ecole primaire de Bolongo,school,Burkina Faso,BFA,OSM,13.65945,-2.48013,,,
Ecole primaire de Toéssin,school,Burkina Faso,BFA,OSM,13.636,-2.4769,,,
Ecole primaire de Binda,school,Burkina Faso,BFA,OSM,13.65214,-2.45013,,,
Ecole,school,Burkina Faso,BFA,OSM,13.61723,-2.4547,,,
CEG de Sissamba,school,Burkina Faso,BFA,OSM,13.5104,-2.47263,,,
Ecole primaire de Taima,school,Burkina Faso,BFA,OSM,14.61181,-0.55946,,,
Ecple primaire de Pirgo A,school,Burkina Faso,BFA,OSM,13.51012,-2.46336,,,
Ecple primaire,school,Burkina Faso,BFA,OSM,13.49782,-2.4597,,,
Ecole franco-arabe,school,Burkina Faso,BFA,OSM,13.53771,-2.45004,,,
Ecole primaire de Tringuel,school,Burkina Faso,BFA,OSM,14.65133,-0.38391,,,
Ecole primaire de Torom,school,Burkina Faso,BFA,OSM,14.64769,-0.30559,,,
CEG Honndo Bom,school,Burkina Faso,BFA,OSM,14.67149,-0.44081,,,
Ecole primaire d'Oursi,school,Burkina Faso,BFA,OSM,14.67598,-0.46318,,,
Ecole primaire,school,Burkina Faso,BFA,OSM,14.66244,-0.50499,,,
Ecple primaire de Pirgo B,school,Burkina Faso,BFA,OSM,13.51561,-2.47159,,,
Ecole primaire de Férério,school,Burkina Faso,BFA,OSM,14.82843,-0.63314,,,
Ecole primaire de Soukoundou,school,Burkina Faso,BFA,OSM,14.68605,-0.27025,,,
Ecole primaire de Ganadaouri,school,Burkina Faso,BFA,OSM,14.74108,-0.39093,,,
Ecole primaire de Tin-Ediar,school,Burkina Faso,BFA,OSM,14.69565,-0.59757,,,
Ecole primaire de Tayaret,school,Burkina Faso,BFA,OSM,14.68535,-0.57456,,,
Ecole primaire de Totori,school,Burkina Faso,BFA,OSM,14.65013,-0.55994,,,
Ecole primaire de Yalka,school,Burkina Faso,BFA,OSM,13.44484,-2.49642,,,
CEG de Yalka,school,Burkina Faso,BFA,OSM,13.44302,-2.4949,,,
Ecole primaire de Tchadi,school,Burkina Faso,BFA,OSM,14.53401,-0.60504,,,
Ecole primaire de Lilkana,school,Burkina Faso,BFA,OSM,13.40897,-2.48699,,,
Ecole secondaire Naba-Tissé,school,Burkina Faso,BFA,OSM,13.40899,-2.58643,,,
Lycée départemental de Zogoré,school,Burkina Faso,BFA,OSM,13.395,-2.58673,,,
Ecole,school,Burkina Faso,BFA,OSM,13.40337,-2.60539,,,
Ecole primaire de Boulounsi,school,Burkina Faso,BFA,OSM,13.42754,-2.56978,,,
Ecole franco-arabe,school,Burkina Faso,BFA,OSM,13.43048,-2.56822,,,
Ecole primaire de Koro,school,Burkina Faso,BFA,OSM,13.455,-2.52014,,,
Ecole primaire de Tangaye A,school,Burkina Faso,BFA,OSM,13.5424,-2.54499,,,
Ecole franco-arabe,school,Burkina Faso,BFA,OSM,13.42017,-2.50625,,,
Ecole primaire d'Ayagorou A,school,Burkina Faso,BFA,OSM,14.54734,-0.72709,,,
Ecole primaire d'Ayagorou B,school,Burkina Faso,BFA,OSM,14.55579,-0.71121,,,
Lycée municipal de Déou,school,Burkina Faso,BFA,OSM,14.59684,-0.71755,,,
Ecole primaire,school,Burkina Faso,BFA,OSM,13.61678,-2.45067,,,
Ecole primaire de Mouni,school,Burkina Faso,BFA,OSM,13.69118,-2.51252,,,
Ecole primaire Rawokyiri,school,Burkina Faso,BFA,OSM,13.66379,-2.49445,,,
Ecole primaire de Gountouré,school,Burkina Faso,BFA,OSM,14.64667,-0.41332,,,
Ecole primaire de Yomboli,school,Burkina Faso,BFA,OSM,14.64456,-0.36528,,,
Ecole primaire???,school,Burkina Faso,BFA,OSM,14.94488,-0.74708,,,
Ecole primaire de Gargassa,school,Burkina Faso,BFA,OSM,14.73273,-0.64856,,,
Ecole primaire de Dibissi,school,Burkina Faso,BFA,OSM,14.69016,-0.64534,,,
Ecole primaire de Sama,school,Burkina Faso,BFA,OSM,14.73012,-0.75324,,,
Ecole primaire de Gandafagou-Kelwélé,school,Burkina Faso,BFA,OSM,14.7409,-0.70561,,,
Ecole primaire de Gountouré-Gnégné,school,Burkina Faso,BFA,OSM,14.70723,-0.82788,,,
Ecole primaire de Bamguel Day,school,Burkina Faso,BFA,OSM,14.68133,-0.83701,,,
Ecole primaire de Tountré-Poli,school,Burkina Faso,BFA,OSM,14.62502,-0.82225,,,
Ecole primaire de Gountouré-Kiri,school,Burkina Faso,BFA,OSM,14.745,-0.94014,,,
Ecole primaire,school,Burkina Faso,BFA,OSM,14.60482,-0.72689,,,
Ecole primaire,school,Burkina Faso,BFA,OSM,10.26006,-3.35723,,,
Ecole primaire,school,Burkina Faso,BFA,OSM,10.23354,-3.31543,,,
Ecole primaire,school,Burkina Faso,BFA,OSM,10.22946,-3.35224,,,
CEG/Lycée,school,Burkina Faso,BFA,OSM,10.23424,-3.33016,,,
Ecole primaire,school,Burkina Faso,BFA,OSM,10.22714,-3.34932,,,
Ecole primaire,school,Burkina Faso,BFA,OSM,11.96534,1.92038,,,
Ecole primaire,school,Burkina Faso,BFA,OSM,11.96003,1.88447,,,
Ecole primaire,school,Burkina Faso,BFA,OSM,12.18926,-1.84038,,,
Ecole primaire,school,Burkina Faso,BFA,OSM,11.91969,1.79309,,,
Ecole,school,Burkina Faso,BFA,OSM,12.21556,-1.409,,,
Ecole primaire,school,Burkina Faso,BFA,OSM,12.21114,-1.41163,,,
Ecole,school,Burkina Faso,BFA,OSM,12.21047,-1.3942,,,
EPP Kpenkankandi,school,Burkina Faso,BFA,OSM,10.99069,0.62729,,,
Ecole primaire,school,Burkina Faso,BFA,OSM,12.22272,-1.3557,,,
Ecole primaire,school,Burkina Faso,BFA,OSM,12.2296,-1.3665,,,
Ecole,school,Burkina Faso,BFA,OSM,12.03071,1.78618,,,
Ecole primaire,school,Burkina Faso,BFA,OSM,11.97471,1.83965,,,
Jardin d'enfants,kindergarten,Burkina Faso,BFA,OSM,12.50908,-1.44312,,,
Collège municipal,school,Burkina Faso,BFA,OSM,11.88373,1.86731,,,
Ecole,school,Burkina Faso,BFA,OSM,11.88676,1.8674,,,
Ecole primaire,school,Burkina Faso,BFA,OSM,11.88277,1.86767,,,
CEG,school,Burkina Faso,BFA,OSM,11.88002,1.85735,,,
Ecole,school,Burkina Faso,BFA,OSM,11.88194,1.85141,,,
Ecole primaire,school,Burkina Faso,BFA,OSM,11.90865,1.86704,,,
Primary School Catholic Saint Paul,school,Burkina Faso,BFA,OSM,13.06779,-1.08181,,,
Ecole primaire,school,Burkina Faso,BFA,OSM,10.24386,-3.29093,,,
Ecole Primaire,school,Burkina Faso,BFA,OSM,10.80114,-4.86052,,,
Ecole primaire,school,Burkina Faso,BFA,OSM,11.91003,1.85582,,,
Ecole primaire,school,Burkina Faso,BFA,OSM,12.23379,-1.43246,,,
Collège Saint Antoine,school,Burkina Faso,BFA,OSM,12.22844,-1.42232,,,
Ecole primaire,school,Burkina Faso,BFA,OSM,12.25384,-1.4314,,,
Ecole primaire,school,Burkina Faso,BFA,OSM,12.23801,-1.45881,,,
Ecole primaire,school,Burkina Faso,BFA,OSM,12.2184,-1.4594,,,
Ecole primaire,school,Burkina Faso,BFA,OSM,12.20775,-1.44233,,,
Ecole de Zanikampa,school,Burkina Faso,BFA,OSM,11.27515,-5.22966,,,
Ecole primaire,school,Burkina Faso,BFA,OSM,11.97754,1.67824,,,
Ecole primaire,school,Burkina Faso,BFA,OSM,11.93499,1.67776,,,
Ecole primaire,school,Burkina Faso,BFA,OSM,11.88176,1.70716,,,
Ecole primaire,school,Burkina Faso,BFA,OSM,11.88908,1.6841,,,
CEG,school,Burkina Faso,BFA,OSM,11.88437,1.69638,,,
Ecole primaire,school,Burkina Faso,BFA,OSM,11.90783,1.67233,,,
Ecole primaire,school,Burkina Faso,BFA,OSM,11.94627,1.85904,,,
Ecole primaire,school,Burkina Faso,BFA,OSM,11.92339,1.90471,,,
Ecole primaire,school,Burkina Faso,BFA,OSM,12.02252,1.77399,,,
Ecole primaire,school,Burkina Faso,BFA,OSM,11.91747,1.93701,,,
Ecole primaire,school,Burkina Faso,BFA,OSM,11.96792,2.00306,,,
Ecole primaire,school,Burkina Faso,BFA,OSM,11.95442,1.98832,,,
Ecole primaire,school,Burkina Faso,BFA,OSM,11.93077,1.58849,,,
Ecole primaire,school,Burkina Faso,BFA,OSM,11.94695,1.57006,,,
Ecole primaire,school,Burkina Faso,BFA,OSM,11.97058,1.57088,,,
Ecole primaire,school,Burkina Faso,BFA,OSM,11.97373,1.56205,,,
CEG,school,Burkina Faso,BFA,OSM,11.97218,1.56312,,,
Ecole primaire satellite,school,Burkina Faso,BFA,OSM,11.93998,1.93279,,,
Ecole primaire,school,Burkina Faso,BFA,OSM,11.90692,1.5549,,,
Ecole primaire,school,Burkina Faso,BFA,OSM,11.92088,1.61396,,,
Ecole primaire,school,Burkina Faso,BFA,OSM,11.85581,1.7147,,,
Ecole primaire,school,Burkina Faso,BFA,OSM,11.86394,1.7713,,,
Ecole primaire,school,Burkina Faso,BFA,OSM,11.85824,1.81311,,,
Ecole primaire,school,Burkina Faso,BFA,OSM,11.87055,1.81197,,,
CEG/Lycée,school,Burkina Faso,BFA,OSM,11.87251,1.78035,,,
Ecole primaire,school,Burkina Faso,BFA,OSM,11.87291,1.78151,,,
Ecole primaire,school,Burkina Faso,BFA,OSM,11.9688,1.73024,,,
Ecole primaire,school,Burkina Faso,BFA,OSM,11.8879,1.77964,,,
Ecole primaire,school,Burkina Faso,BFA,OSM,10.323,-3.33676,,,
Ecole primaire,school,Burkina Faso,BFA,OSM,10.29059,-3.345,,,
Ecole primaire,school,Burkina Faso,BFA,OSM,10.27878,-3.31648,,,
Ecole primaire,school,Burkina Faso,BFA,OSM,10.20082,-3.30797,,,
Lycée Privée les Elites de Banfora,school,Burkina Faso,BFA,OSM,10.63745,-4.75357,,,
Ecole primaire,school,Burkina Faso,BFA,OSM,11.99806,1.76567,,,
Ferme Onesime,school,Burkina Faso,BFA,OSM,12.36052,-1.54587,,,
Ecole primaire,school,Burkina Faso,BFA,OSM,11.89197,1.80244,,,
Ecole primaire,school,Burkina Faso,BFA,OSM,12.19544,-1.33812,,,
Ecole primaire,school,Burkina Faso,BFA,OSM,12.17433,-1.35773,,,
Ecole primaire,school,Burkina Faso,BFA,OSM,12.51999,-1.56447,,,
Ecole primaire,school,Burkina Faso,BFA,OSM,12.55736,-1.57437,,,
Ecole,school,Burkina Faso,BFA,OSM,12.50871,-1.56531,,,
Ecole,school,Burkina Faso,BFA,OSM,12.50847,-1.56441,,,
Ecole primaire,school,Burkina Faso,BFA,OSM,12.54226,-1.62404,,,
Ecole primaire,school,Burkina Faso,BFA,OSM,12.50385,-1.44169,,,
Ecole primaire,school,Burkina Faso,BFA,OSM,12.4786,-1.55354,,,
Préscolaire,kindergarten,Burkina Faso,BFA,OSM,12.47843,-1.5541,,,
Ecole primaire,school,Burkina Faso,BFA,OSM,12.20683,-2.06739,,,
Ecole,school,Burkina Faso,BFA,OSM,12.19854,-2.17727,,,
Ecole primaire,school,Burkina Faso,BFA,OSM,12.20041,-2.15536,,,
Ecole,school,Burkina Faso,BFA,OSM,12.20425,-2.12558,,,
Lycée municipal,school,Burkina Faso,BFA,OSM,12.20633,-2.1236,,,
Ecole,school,Burkina Faso,BFA,OSM,12.2083,-2.09229,,,
Ecole,school,Burkina Faso,BFA,OSM,12.21039,-2.1097,,,
Ecole Belemtissé,school,Burkina Faso,BFA,OSM,12.38414,-1.49236,,,
Ecole primaire,school,Burkina Faso,BFA,OSM,12.20783,-1.31502,,,
Ecole primaire,school,Burkina Faso,BFA,OSM,12.48073,-1.50086,,,
Ecole primaire,school,Burkina Faso,BFA,OSM,12.48007,-1.5001,,,
Ecole primaire,school,Burkina Faso,BFA,OSM,12.53215,-1.50906,,,
Lycée,school,Burkina Faso,BFA,OSM,12.531,-1.50661,,,
Ecole primaire,school,Burkina Faso,BFA,OSM,12.22933,-1.34161,,,
Ecole primaire,school,Burkina Faso,BFA,OSM,12.23002,-1.34054,,,
CEG,school,Burkina Faso,BFA,OSM,12.23736,-1.32971,,,
Ecole primaire,school,Burkina Faso,BFA,OSM,12.20061,-1.31771,,,
Ecole franco-arabe,school,Burkina Faso,BFA,OSM,12.20824,-2.10436,,,
Ecole,school,Burkina Faso,BFA,OSM,12.21165,-1.41724,,,
Ecole,school,Burkina Faso,BFA,OSM,12.21056,-1.42013,,,
Ecole primaire stellite de Kakoumana,school,Burkina Faso,BFA,OSM,10.24174,-4.93879,,,
Ecole primaire publique de Bounouna,school,Burkina Faso,BFA,OSM,10.66198,-4.73614,,,
Ecole primaire,school,Burkina Faso,BFA,OSM,12.19514,-1.41398,,,
Ecole,school,Burkina Faso,BFA,OSM,12.47625,-1.55602,,,
Ecole,school,Burkina Faso,BFA,OSM,12.19463,-1.41135,,,
Collège des Jeunes-filles de Koubri,school,Burkina Faso,BFA,OSM,12.19565,-1.40205,,,
Ecole primaire,school,Burkina Faso,BFA,OSM,12.20982,-1.35468,,,
Ecole primaire,school,Burkina Faso,BFA,OSM,12.5206,-1.49976,,,
Ecole primaire,school,Burkina Faso,BFA,OSM,12.53362,-1.46112,,,
Ecole primaire,school,Burkina Faso,BFA,OSM,12.49096,-1.47326,,,
Ecole primaire,school,Burkina Faso,BFA,OSM,12.51908,-1.4448,,,
CEG,school,Burkina Faso,BFA,OSM,12.51797,-1.45244,,,
Ecole,school,Burkina Faso,BFA,OSM,12.19619,-1.41331,,,
Ecole primaire,school,Burkina Faso,BFA,OSM,12.47813,-1.54983,,,
Ecole franco-arabe,school,Burkina Faso,BFA,OSM,12.47871,-1.52785,,,
Ecole primaire,school,Burkina Faso,BFA,OSM,12.47575,-1.53323,,,
Ecole primaire,school,Burkina Faso,BFA,OSM,12.49211,-1.52794,,,
Ecole primaire,school,Burkina Faso,BFA,OSM,12.52428,-1.53648,,,
Ecole primaire,school,Burkina Faso,BFA,OSM,12.50714,-1.43038,,,
Ecole primaire,school,Burkina Faso,BFA,OSM,12.50349,-1.42425,,,
Ecole,school,Burkina Faso,BFA,OSM,12.2434,-1.43777,,,
Ecole primaire,school,Burkina Faso,BFA,OSM,12.24194,-1.43187,,,
CEG,school,Burkina Faso,BFA,OSM,12.24305,-1.43291,,,
Ecole primaire,school,Burkina Faso,BFA,OSM,12.25474,-1.4325,,,
Ecole,school,Burkina Faso,BFA,OSM,12.23586,-1.43331,,,
Les Écoles Bamb-bala,school,Burkina Faso,BFA,OSM,12.40814,-1.64053,,,
Ecole primaire de Zinguédéguen,school,Burkina Faso,BFA,OSM,12.18798,-2.10133,,,
Ecole primaire de Tatyou,school,Burkina Faso,BFA,OSM,12.11972,-2.11134,,,
CEG de Nariou,school,Burkina Faso,BFA,OSM,12.10849,-2.13565,,,
Ecole primaire,school,Burkina Faso,BFA,OSM,12.08166,-2.15255,,,
Ecole primaire de Nariou,school,Burkina Faso,BFA,OSM,12.0936,-2.14279,,,
CEG de Nariou,school,Burkina Faso,BFA,OSM,12.08782,-2.1394,,,
Ecole primiaire de Nibadgo,school,Burkina Faso,BFA,OSM,12.05575,-2.12663,,,
Ecole biblique,school,Burkina Faso,BFA,OSM,11.97124,1.55077,,,
Ecole,school,Burkina Faso,BFA,OSM,12.14952,-2.05731,,,
Ecole primaire,school,Burkina Faso,BFA,OSM,12.14909,-2.05352,,,
Ecole primaire de Bissiga,school,Burkina Faso,BFA,OSM,12.14707,-2.07076,,,
CEG de Sogpelcé,school,Burkina Faso,BFA,OSM,12.17116,-2.1817,,,
Ecole Primaire Publique de Flognaya,school,Burkina Faso,BFA,OSM,11.16653,-4.80851,,,
Ecole primaire de Sogpelcé,school,Burkina Faso,BFA,OSM,12.17408,-2.17407,,,
Ecole primaire de Moungounissi,school,Burkina Faso,BFA,OSM,12.15515,-2.16547,,,
Ecole primaire,school,Burkina Faso,BFA,OSM,12.15891,-2.18811,,,
Ecole primiaire de Koukin,school,Burkina Faso,BFA,OSM,11.98051,-2.12933,,,
Ecole primaire,school,Burkina Faso,BFA,OSM,12.06458,-2.20483,,,
Ecole franco-arabe,school,Burkina Faso,BFA,OSM,12.0541,-2.18779,,,
CEG de Gogo,school,Burkina Faso,BFA,OSM,12.12827,-2.19258,,,
Ecole primaire de Gogo,school,Burkina Faso,BFA,OSM,12.13123,-2.19608,,,
Ecole primaire de Koulogozougou,school,Burkina Faso,BFA,OSM,12.09931,-2.17261,,,
Ecole primaire de Gogo,school,Burkina Faso,BFA,OSM,12.11663,-2.18731,,,
Ecole primaire,school,Burkina Faso,BFA,OSM,12.07297,-2.18326,,,
Ecole primaire,school,Burkina Faso,BFA,OSM,12.08839,-2.15994,,,
Ecole primaire,school,Burkina Faso,BFA,OSM,11.5909,-2.77707,,,
Ecole primaire,school,Burkina Faso,BFA,OSM,12.03994,-2.18014,,,
Ecole primaire,school,Burkina Faso,BFA,OSM,12.03708,-2.18063,,,
CEG de Sogpelcé,school,Burkina Faso,BFA,OSM,12.0267,-2.17846,,,
Ecole primaire,school,Burkina Faso,BFA,OSM,12.01628,-2.17033,,,
Ecole primaire de Thyou A,school,Burkina Faso,BFA,OSM,11.94832,-2.19558,,,
Ecole Franco-Arabe,school,Burkina Faso,BFA,OSM,11.11497,-0.01,,,
Ecole Franco-Arabe,school,Burkina Faso,BFA,OSM,11.11597,-0.01424,,,
Ecole primaire,school,Burkina Faso,BFA,OSM,11.60235,-2.79352,,,
Ecole primaire de Kontienaba,school,Burkina Faso,BFA,OSM,12.06987,-2.15863,,,
Ecole franco-arabe,school,Burkina Faso,BFA,OSM,12.20227,-1.97393,,,
Ecole primaire,school,Burkina Faso,BFA,OSM,12.21777,-1.96292,,,
Ecole primaire,school,Burkina Faso,BFA,OSM,12.20567,-1.9686,,,
Ecole primaire,school,Burkina Faso,BFA,OSM,12.2133,-1.94351,,,
Ecole primaire,school,Burkina Faso,BFA,OSM,12.24348,-1.97055,,,
Ecole primaire,school,Burkina Faso,BFA,OSM,12.23089,-1.95464,,,
Ecole primaire,school,Burkina Faso,BFA,OSM,12.24242,-1.94317,,,
Ecole primaire de Goulouré,school,Burkina Faso,BFA,OSM,12.22537,-1.93798,,,
Ecole primaire de Nabasagogo,school,Burkina Faso,BFA,OSM,12.11358,-2.05802,,,
Ecole primaire,school,Burkina Faso,BFA,OSM,12.13504,-2.06971,,,
Ecole franco-arabe,school,Burkina Faso,BFA,OSM,12.13314,-2.06969,,,
CEG de Nabadogo,school,Burkina Faso,BFA,OSM,12.12959,-2.07821,,,
CEG/Lycée,school,Burkina Faso,BFA,OSM,12.12958,-2.08045,,,
Ecole primaire,school,Burkina Faso,BFA,OSM,12.24498,-1.78129,,,
Ecole primaire de Manéga,school,Burkina Faso,BFA,OSM,12.25727,-1.79971,,,
Ecole primaire,school,Burkina Faso,BFA,OSM,12.24973,-1.8216,,,
Ecole primaire,school,Burkina Faso,BFA,OSM,12.2354,-1.83121,,,
Ecole primaire,school,Burkina Faso,BFA,OSM,12.13948,-2.04842,,,
Ecole primaire Kelma,school,Burkina Faso,BFA,OSM,12.12951,-2.09284,,,
Ecole primaire,school,Burkina Faso,BFA,OSM,12.13006,-2.06545,,,
Ecole primaire de Nabadogo,school,Burkina Faso,BFA,OSM,12.13373,-2.06784,,,
Ecole primaire de Kamsé,school,Burkina Faso,BFA,OSM,12.05433,-2.09233,,,
Ecole primaire,school,Burkina Faso,BFA,OSM,12.02479,-2.10557,,,
Ecole primaire de Soula A,school,Burkina Faso,BFA,OSM,12.0315,-2.08753,,,
Ecole franco-arabe,school,Burkina Faso,BFA,OSM,12.03237,-2.08453,,,
Ecole primaire,school,Burkina Faso,BFA,OSM,12.04185,-2.10174,,,
Ecole primaire de Koulnatenga,school,Burkina Faso,BFA,OSM,12.20396,-1.98008,,,
Ecole primaire,school,Burkina Faso,BFA,OSM,12.1774,-2.04092,,,
Ecole primaire,school,Burkina Faso,BFA,OSM,12.02316,-2.15816,,,
Ecole primaire,school,Burkina Faso,BFA,OSM,11.97144,-2.18361,,,
Ecole primaire de Gouroungo,school,Burkina Faso,BFA,OSM,12.18403,-2.14892,,,
Ecole,school,Burkina Faso,BFA,OSM,12.16732,-2.13732,,,
Ecole primaire Sikomtenga,school,Burkina Faso,BFA,OSM,12.1633,-2.1416,,,
CEG de Savili,school,Burkina Faso,BFA,OSM,12.09932,-2.04181,,,
Ecole primaire,school,Burkina Faso,BFA,OSM,12.18726,-1.99154,,,
Ecole,school,Burkina Faso,BFA,OSM,12.44033,-1.60568,,,
Lycée municipal de Sabou,school,Burkina Faso,BFA,OSM,12.06395,-2.23077,,,
Ecole,school,Burkina Faso,BFA,OSM,12.07168,-2.24404,,,
Ecole primaire,school,Burkina Faso,BFA,OSM,11.93403,1.63457,,,
ycée communal,school,Burkina Faso,BFA,OSM,11.94254,1.63008,,,
Ecole primaire,school,Burkina Faso,BFA,OSM,11.94971,1.63938,,,
Ecole primaire,school,Burkina Faso,BFA,OSM,11.93641,1.62283,,,
Ecole primaire,school,Burkina Faso,BFA,OSM,11.92667,1.61877,,,
CEG,school,Burkina Faso,BFA,OSM,11.93253,1.61846,,,
Centre de formation,school,Burkina Faso,BFA,OSM,12.07008,-2.20353,,,
Ecole primaire,school,Burkina Faso,BFA,OSM,12.04554,-2.23806,,,
Ecole primaire,school,Burkina Faso,BFA,OSM,12.01334,-2.23228,,,
CEG?,school,Burkina Faso,BFA,OSM,11.95596,-2.24992,,,
Ecole primaire,school,Burkina Faso,BFA,OSM,11.95495,-2.25062,,,
Ecole primaire,school,Burkina Faso,BFA,OSM,11.95443,-2.23982,,,
Ecole primaire,school,Burkina Faso,BFA,OSM,12.14321,-2.21239,,,
Ecole primaire,school,Burkina Faso,BFA,OSM,12.12294,-2.21737,,,
CEG,school,Burkina Faso,BFA,OSM,12.04671,-2.22262,,,
Ecole primaire,school,Burkina Faso,BFA,OSM,12.04791,-2.22875,,,
Ecole primaire,school,Burkina Faso,BFA,OSM,11.99218,1.59906,,,
CEG,school,Burkina Faso,BFA,OSM,11.99297,1.5973,,,
Ecole primaire,school,Burkina Faso,BFA,OSM,12.0012,1.56464,,,
Médersa,school,Burkina Faso,BFA,OSM,11.44081,-3.54475,,,
Ecole primaire,school,Burkina Faso,BFA,OSM,11.87417,1.78009,,,
Ecole primaire,school,Burkina Faso,BFA,OSM,11.86874,1.79777,,,
Ecole primaire,school,Burkina Faso,BFA,OSM,11.8754,1.74111,,,
Ecole primaire,school,Burkina Faso,BFA,OSM,11.91299,1.76178,,,
Ecole primaire,school,Burkina Faso,BFA,OSM,12.09365,-2.22948,,,
Ecole primaire,school,Burkina Faso,BFA,OSM,11.95011,1.76548,,,
CEG de Ouézindougou,school,Burkina Faso,BFA,OSM,12.03609,-2.27189,,,
Ecole primaire,school,Burkina Faso,BFA,OSM,12.08979,-2.26101,,,
Ecole primaire de Kougsin,school,Burkina Faso,BFA,OSM,12.10088,-2.26726,,,
Ecole,school,Burkina Faso,BFA,OSM,12.07931,-2.2547,,,
Centre de Formation Professionnelle Pengd-Wende Couture,school,Burkina Faso,BFA,OSM,12.40379,-1.6273,,,
Lycée Som-Pagnimdi de Kamboinsin,school,Burkina Faso,BFA,OSM,12.44419,-1.5622,,,
Ecole primaire de Namanéguéma,school,Burkina Faso,BFA,OSM,12.12535,-2.24778,,,
Ecole primaire,school,Burkina Faso,BFA,OSM,11.92872,1.72857,,,
Ecole primaire,school,Burkina Faso,BFA,OSM,12.05468,-2.23585,,,
Ecole,school,Burkina Faso,BFA,OSM,12.0544,-2.23909,,,
Ecole primaire,school,Burkina Faso,BFA,OSM,12.05686,-2.23073,,,
Ecole primaire B,school,Burkina Faso,BFA,OSM,12.05001,-2.25072,,,
Ecole primaire,school,Burkina Faso,BFA,OSM,11.60915,-2.73112,,,
Ecole primaire,school,Burkina Faso,BFA,OSM,11.61492,-2.75772,,,
Ecole primaire,school,Burkina Faso,BFA,OSM,11.67626,-2.74811,,,
Ecole primaire,school,Burkina Faso,BFA,OSM,11.66744,-2.74471,,,
Ecole primaire de Sabou Centre,school,Burkina Faso,BFA,OSM,12.05942,-2.22489,,,
CEG,school,Burkina Faso,BFA,OSM,11.69034,-2.74265,,,
Ecole primaire,school,Burkina Faso,BFA,OSM,11.70132,-2.90916,,,
