{"type": "FeatureCollection", "name": "schools", "crs": {"type": "name", "properties": {"name": "urn:ogc:def:crs:OGC:1.3:CRS84"}}, "features": [{"type": "Feature", "properties": {"name": "\u00c9cole Nazems\u00e9", "amenity": "school", "field_status": "Closed", "field_note": "School closed due to nearby military activity. Staff evacuated.", "field_date": "2026-05-20", "field_observer": "J. Doe (Field Coordinator)", "verification_status": "verified"}, "geometry": {"type": "Point", "coordinates": [-1.5226, 12.3234]}}, {"type": "Feature", "properties": {"name": "Accart-Ville Sud", "amenity": "school"}, "geometry": {"type": "Point", "coordinates": [-4.3115, 11.1819]}}, {"type": "Feature", "properties": {"name": "College de Tounouma", "amenity": "school", "field_status": "Open", "field_note": "Operating at 50% capacity. Many displaced students joining.", "field_date": "2026-05-22", "field_observer": "S. Smith", "verification_status": "verified"}, "geometry": {"type": "Point", "coordinates": [-4.2835, 11.1798]}}, {"type": "Feature", "properties": {"name": "Lyc\u00e9e technique Jean-paul II", "amenity": "school"}, "geometry": {"type": "Point", "coordinates": [-1.483, 12.3621]}}, {"type": "Feature", "properties": {"name": "ISIG INTERNATIONAL Annexe", "amenity": "university"}, "geometry": {"type": "Point", "coordinates": [-1.4979, 12.3692]}}, {"type": "Feature", "properties": {"name": "Ecole", "amenity": "school"}, "geometry": {"type": "Point", "coordinates": [-1.6322, 12.8129]}}, {"type": "Feature", "properties": {"name": "Ecole", "amenity": "school"}, "geometry": {"type": "Point", "coordinates": [-1.6333, 12.7854]}}, {"type": "Feature", "properties": {"name": "Ecole Nationale des Eaux et For\u00eats", "amenity": "college"}, "geometry": {"type": "Point", "coordinates": [-4.4327, 11.2237]}}, {"type": "Feature", "properties": {"name": "Ecole primaire fran\u00e7aise Saint-Exup\u00e9ry", "amenity": "school"}, "geometry": {"type": "Point", "coordinates": [-1.5178, 12.3704]}}, {"type": "Feature", "properties": {"name": "Gueswende Bala A et B", "amenity": "school", "field_status": "Damaged", "field_note": "Roof damaged by recent storm. Classes held under trees.", "field_date": "2026-05-25", "field_observer": "K. Traore", "verification_status": "verified"}, "geometry": {"type": "Point", "coordinates": [-1.5222, 12.3192]}}, {"type": "Feature", "properties": {"name": "Lyc\u00e9e Technique de Ouagadougou", "amenity": "school"}, "geometry": {"type": "Point", "coordinates": [-1.4977, 12.3819]}}, {"type": "Feature", "properties": {"name": "ENAM", "amenity": "school", "field_status": "Open", "field_note": "Normal operations. Local community providing security watch.", "field_date": "2026-05-26", "field_observer": "K. Traore", "verification_status": "verified"}, "geometry": {"type": "Point", "coordinates": [-1.506, 12.3788]}}, {"type": "Feature", "properties": {"name": "Lyc\u00e9e priv\u00e9 Daroul (education islamique)", "amenity": "school"}, "geometry": {"type": "Point", "coordinates": [-1.5535, 12.3633]}}, {"type": "Feature", "properties": {"name": "Centre de Formation Professionnelle de R\u00e9f\u00e9rence de Ziniar\u00e9", "amenity": "school"}, "geometry": {"type": "Point", "coordinates": [-1.3316, 12.5754]}}, {"type": "Feature", "properties": {"name": "Ecole du Village-Op\u00e9ra", "amenity": "school"}, "geometry": {"type": "Point", "coordinates": [-1.281, 12.5438]}}, {"type": "Feature", "properties": {"name": "Universit\u00e9 Nazi Boni", "amenity": "university"}, "geometry": {"type": "Point", "coordinates": [-4.4176, 11.2093]}}, {"type": "Feature", "properties": {"name": "\u00c9cole primaire de Yikiemdin", "amenity": "school"}, "geometry": {"type": "Point", "coordinates": [-2.1675, 12.5162]}}, {"type": "Feature", "properties": {"name": "\u00c9cole primaire de Rakalo", "amenity": "school"}, "geometry": {"type": "Point", "coordinates": [-2.2131, 12.4593]}}, {"type": "Feature", "properties": {"name": "\u00c9cole primaire de Pamanogo", "amenity": "school"}, "geometry": {"type": "Point", "coordinates": [-2.1587, 12.4716]}}, {"type": "Feature", "properties": {"name": "\u00c9cole primaire de Nabzinigma", "amenity": "school"}, "geometry": {"type": "Point", "coordinates": [-2.0094, 12.6254]}}, {"type": "Feature", "properties": {"name": "\u00c9cole primaire de Sibou", "amenity": "school"}, "geometry": {"type": "Point", "coordinates": [-2.0465, 12.693]}}, {"type": "Feature", "properties": {"name": "\u00c9cole primaire de Gouroumbila", "amenity": "school"}, "geometry": {"type": "Point", "coordinates": [-2.2197, 12.6933]}}, {"type": "Feature", "properties": {"name": "\u00c9cole primaire de Zimidin Soaw", "amenity": "school"}, "geometry": {"type": "Point", "coordinates": [-2.1911, 12.5002]}}, {"type": "Feature", "properties": {"name": "\u00c9cole primaire de Yargo", "amenity": "school"}, "geometry": {"type": "Point", "coordinates": [-2.2085, 12.5182]}}, {"type": "Feature", "properties": {"name": "\u00c9cole primaire de Bokin", "amenity": "school"}, "geometry": {"type": "Point", "coordinates": [-2.2193, 12.5396]}}, {"type": "Feature", "properties": {"name": "Institut technique et commercial Akpode (ITCA)", "amenity": "college"}, "geometry": {"type": "Point", "coordinates": [-1.4876, 12.3795]}}, {"type": "Feature", "properties": {"name": "\u00c9cole primaire de Soaw", "amenity": "school"}, "geometry": {"type": "Point", "coordinates": [-2.1835, 12.5199]}}, {"type": "Feature", "properties": {"name": "\u00c9cole primaire de Bagand\u00e9", "amenity": "school"}, "geometry": {"type": "Point", "coordinates": [-2.0639, 12.5702]}}, {"type": "Feature", "properties": {"name": "\u00c9cole primaire Goala B", "amenity": "school"}, "geometry": {"type": "Point", "coordinates": [-2.1039, 12.5364]}}, {"type": "Feature", "properties": {"name": "\u00c9cole primaire de Somassi", "amenity": "school"}, "geometry": {"type": "Point", "coordinates": [-2.0893, 12.5845]}}, {"type": "Feature", "properties": {"name": "\u00c9cole primaire de Mara Pella", "amenity": "school"}, "geometry": {"type": "Point", "coordinates": [-2.0799, 12.5391]}}, {"type": "Feature", "properties": {"name": "\u00c9cole primaire de Daboala", "amenity": "school"}, "geometry": {"type": "Point", "coordinates": [-2.0312, 12.631]}}, {"type": "Feature", "properties": {"name": "\u00c9cole primaire de S\u00e9gu\u00e9din Soaw", "amenity": "school"}, "geometry": {"type": "Point", "coordinates": [-2.2405, 12.4895]}}, {"type": "Feature", "properties": {"name": "\u00c9cole Primaire Sainte-Anne", "amenity": "school"}, "geometry": {"type": "Point", "coordinates": [-2.196, 12.6954]}}, {"type": "Feature", "properties": {"name": "Lyc\u00e9e professionnel agricole", "amenity": "school"}, "geometry": {"type": "Point", "coordinates": [-2.1994, 12.6998]}}, {"type": "Feature", "properties": {"name": "Universit\u00e9 Saint Thomas d\u2019Aquin (USTA)", "amenity": "university"}, "geometry": {"type": "Point", "coordinates": [-1.4184, 12.3841]}}, {"type": "Feature", "properties": {"name": "Ecole du ch\u00e2teau", "amenity": "school"}, "geometry": {"type": "Point", "coordinates": [-1.482, 12.3545]}}, {"type": "Feature", "properties": {"name": "Ecole du ch\u00e2teau", "amenity": "school"}, "geometry": {"type": "Point", "coordinates": [-1.4817, 12.3548]}}, {"type": "Feature", "properties": {"name": "Ecole du ch\u00e2teau", "amenity": "school"}, "geometry": {"type": "Point", "coordinates": [-1.4816, 12.3549]}}, {"type": "Feature", "properties": {"name": "Schule B", "amenity": "school"}, "geometry": {"type": "Point", "coordinates": [-3.6158, 12.0239]}}, {"type": "Feature", "properties": {"name": "Lyc\u00e9e Promotion", "amenity": "college"}, "geometry": {"type": "Point", "coordinates": [-4.2709, 11.1684]}}, {"type": "Feature", "properties": {"name": "Ecole Primaire Prive EBEN EZER", "amenity": "school"}, "geometry": {"type": "Point", "coordinates": [-4.3369, 11.1806]}}, {"type": "Feature", "properties": {"name": "\u00c9cole primaire Sikasso sira A et B", "amenity": "school"}, "geometry": {"type": "Point", "coordinates": [-4.3075, 11.1698]}}, {"type": "Feature", "properties": {"name": "UPB ex Centre de calcul", "amenity": "university"}, "geometry": {"type": "Point", "coordinates": [-4.315, 11.1646]}}, {"type": "Feature", "properties": {"name": "Ecoles Primaires EST de KOUDOUGOU", "amenity": "school"}, "geometry": {"type": "Point", "coordinates": [-2.3611, 12.2544]}}, {"type": "Feature", "properties": {"name": "CEG de Dacisse", "amenity": "school"}, "geometry": {"type": "Point", "coordinates": [-2.2839, 12.6595]}}, {"type": "Feature", "properties": {"name": "2iE", "amenity": "university"}, "geometry": {"type": "Point", "coordinates": [-1.5514, 12.4621]}}, {"type": "Feature", "properties": {"name": "Institut de formation des personnels de l'\u00e9ducation du Plateau Central", "amenity": "college"}, "geometry": {"type": "Point", "coordinates": [-1.4252, 12.4794]}}, {"type": "Feature", "properties": {"name": "Lycee Prive de la Nativite", "amenity": "school"}, "geometry": {"type": "Point", "coordinates": [-4.2749, 11.1784]}}, {"type": "Feature", "properties": {"name": "ABBEF", "amenity": "kindergarten"}, "geometry": {"type": "Point", "coordinates": [-4.3184, 11.1881]}}, {"type": "Feature", "properties": {"name": "Lycee Priv\u00e9 Tarwende", "amenity": "school"}, "geometry": {"type": "Point", "coordinates": [-1.5406, 12.3368]}}, {"type": "Feature", "properties": {"name": "Ecole", "amenity": "school"}, "geometry": {"type": "Point", "coordinates": [-0.0378, 14.4812]}}, {"type": "Feature", "properties": {"name": "Ecole", "amenity": "school"}, "geometry": {"type": "Point", "coordinates": [0.0062, 14.4626]}}, {"type": "Feature", "properties": {"name": "Lyc\u00e9e BOGODOGO de Ouagadougou", "amenity": "school"}, "geometry": {"type": "Point", "coordinates": [-1.5065, 12.381]}}, {"type": "Feature", "properties": {"name": "Centre d'Etudes Economiques et Sociales de l'Afrique de l'Ouest (CESAO)", "amenity": "school"}, "geometry": {"type": "Point", "coordinates": [-4.2864, 11.1592]}}, {"type": "Feature", "properties": {"name": "Lyc\u00e9e Mixe d'accard-Ville", "amenity": "school"}, "geometry": {"type": "Point", "coordinates": [-4.3154, 11.1874]}}, {"type": "Feature", "properties": {"name": "Lyc\u00e9e Mixe d'accard-Ville", "amenity": "school"}, "geometry": {"type": "Point", "coordinates": [-4.3155, 11.1867]}}, {"type": "Feature", "properties": {"name": "Groupe Scolaire Sainte-Collete - annexe professionnelle", "amenity": "school"}, "geometry": {"type": "Point", "coordinates": [-1.463, 12.3684]}}, {"type": "Feature", "properties": {"name": "Groupe Scolaire Camara Laye", "amenity": "school"}, "geometry": {"type": "Point", "coordinates": [-1.5368, 12.35]}}, {"type": "Feature", "properties": {"name": "Coll\u00e8ge Priv\u00e9 RAMODG-WENDE", "amenity": "school"}, "geometry": {"type": "Point", "coordinates": [-1.5249, 12.3294]}}, {"type": "Feature", "properties": {"name": "Ecole Patte D'Oie A et B", "amenity": "school"}, "geometry": {"type": "Point", "coordinates": [-1.5173, 12.329]}}, {"type": "Feature", "properties": {"name": "Ecole de formation des enseignants du Primaire", "amenity": "school"}, "geometry": {"type": "Point", "coordinates": [-3.1551, 10.3157]}}, {"type": "Feature", "properties": {"name": "Ecole", "amenity": "school"}, "geometry": {"type": "Point", "coordinates": [-1.6068, 12.7788]}}, {"type": "Feature", "properties": {"name": "L'ecole Primaire", "amenity": "school"}, "geometry": {"type": "Point", "coordinates": [-1.9188, 11.1211]}}, {"type": "Feature", "properties": {"name": "Les Leaders de demain", "amenity": "school"}, "geometry": {"type": "Point", "coordinates": [-1.5396, 12.3348]}}, {"type": "Feature", "properties": {"name": "Lyc\u00e9e Taal M'bi", "amenity": "school"}, "geometry": {"type": "Point", "coordinates": [-2.3871, 12.2483]}}, {"type": "Feature", "properties": {"name": "Lyce\u00e9 Technique Maurice Yam\u00e9ogo", "amenity": "school"}, "geometry": {"type": "Point", "coordinates": [-2.3974, 12.2658]}}, {"type": "Feature", "properties": {"name": "institut de formation colbert", "amenity": "school"}, "geometry": {"type": "Point", "coordinates": [-1.5251, 12.3173]}}, {"type": "Feature", "properties": {"name": "Grand seminaire de Koumi", "amenity": "school"}, "geometry": {"type": "Point", "coordinates": [-4.4345, 11.2029]}}, {"type": "Feature", "properties": {"name": "Ecole Elnadia", "amenity": "school"}, "geometry": {"type": "Point", "coordinates": [-1.5375, 12.4019]}}, {"type": "Feature", "properties": {"name": "Ecole Taombila A B", "amenity": "school"}, "geometry": {"type": "Point", "coordinates": [-1.5386, 12.4044]}}, {"type": "Feature", "properties": {"name": "Ecole primaire ATA", "amenity": "school"}, "geometry": {"type": "Point", "coordinates": [-1.5336, 12.407]}}, {"type": "Feature", "properties": {"name": "\u00c9cole primaire Pella A", "amenity": "school"}, "geometry": {"type": "Point", "coordinates": [-2.0355, 12.5846]}}, {"type": "Feature", "properties": {"name": "Ecole Primaire Toungouena", "amenity": "school"}, "geometry": {"type": "Point", "coordinates": [-4.7433, 10.6313]}}, {"type": "Feature", "properties": {"name": "Ecole Primaire Franco-Arabe", "amenity": "school"}, "geometry": {"type": "Point", "coordinates": [-4.7491, 10.6391]}}, {"type": "Feature", "properties": {"name": "Ecole Primaire Flantama Nord", "amenity": "school"}, "geometry": {"type": "Point", "coordinates": [-4.7535, 10.6421]}}, {"type": "Feature", "properties": {"name": "Ecole Primaire Flantama Centre", "amenity": "school"}, "geometry": {"type": "Point", "coordinates": [-4.7515, 10.6369]}}, {"type": "Feature", "properties": {"name": "Ecole Primaire Chauvigny", "amenity": "school"}, "geometry": {"type": "Point", "coordinates": [-4.751, 10.6323]}}, {"type": "Feature", "properties": {"name": "Lyc\u00e9e Technique", "amenity": "school"}, "geometry": {"type": "Point", "coordinates": [-2.3271, 12.2563]}}, {"type": "Feature", "properties": {"name": "coll\u00e8ge", "amenity": "school"}, "geometry": {"type": "Point", "coordinates": [-3.2958, 12.5764]}}, {"type": "Feature", "properties": {"name": "Formation professionnelle des jeunes agriculteurs", "amenity": "college"}, "geometry": {"type": "Point", "coordinates": [-0.0538, 14.0774]}}, {"type": "Feature", "properties": {"name": "Lyc\u00e9e Municipal Jaque Toula de Banfora", "amenity": "school"}, "geometry": {"type": "Point", "coordinates": [-4.746, 10.6288]}}, {"type": "Feature", "properties": {"name": "Lyce\u00e9 Yadega", "amenity": "school"}, "geometry": {"type": "Point", "coordinates": [-2.4249, 13.5808]}}, {"type": "Feature", "properties": {"name": "Ecole Primaire Centre A", "amenity": "school"}, "geometry": {"type": "Point", "coordinates": [-4.7633, 10.641]}}, {"type": "Feature", "properties": {"name": "Universit\u00e9 Norbert Zongo", "amenity": "university"}, "geometry": {"type": "Point", "coordinates": [-2.3987, 12.237]}}, {"type": "Feature", "properties": {"name": "St. Viateur", "amenity": "school"}, "geometry": {"type": "Point", "coordinates": [-4.7333, 10.6358]}}, {"type": "Feature", "properties": {"name": "Lyc\u00e9e Provinvial Lompolo Kone", "amenity": "school"}, "geometry": {"type": "Point", "coordinates": [-4.7675, 10.6436]}}, {"type": "Feature", "properties": {"name": "Lyc\u00e9e MB", "amenity": "school"}, "geometry": {"type": "Point", "coordinates": [-4.7646, 10.641]}}, {"type": "Feature", "properties": {"name": "Ecole Primaire Sud", "amenity": "school"}, "geometry": {"type": "Point", "coordinates": [-4.7584, 10.6304]}}, {"type": "Feature", "properties": {"name": "Ecole Primaire Communale", "amenity": "school"}, "geometry": {"type": "Point", "coordinates": [-4.7487, 10.6255]}}, {"type": "Feature", "properties": {"name": "Ecole Primaire Avenir", "amenity": "school"}, "geometry": {"type": "Point", "coordinates": [-4.7588, 10.637]}}, {"type": "Feature", "properties": {"name": "CEBNF", "amenity": "school"}, "geometry": {"type": "Point", "coordinates": [-4.7445, 10.6255]}}, {"type": "Feature", "properties": {"name": "Direction Regionale de l'Enseignement de Base du Centre Ouest", "amenity": "school"}, "geometry": {"type": "Point", "coordinates": [-2.3686, 12.2493]}}, {"type": "Feature", "properties": {"name": "Ecole Primaire Tatana", "amenity": "school"}, "geometry": {"type": "Point", "coordinates": [-4.7354, 10.6427]}}, {"type": "Feature", "properties": {"name": "Ecole Tanghin C", "amenity": "school"}, "geometry": {"type": "Point", "coordinates": [-1.5394, 12.4009]}}, {"type": "Feature", "properties": {"name": "\u00c9cole de CNSS", "amenity": "school"}, "geometry": {"type": "Point", "coordinates": [-1.5836, 12.3936]}}, {"type": "Feature", "properties": {"name": "Lyc\u00e9e Wendenda", "amenity": "school"}, "geometry": {"type": "Point", "coordinates": [-1.5858, 12.3914]}}, {"type": "Feature", "properties": {"name": "\u00c9cole Bass-Yir\u00e9", "amenity": "school"}, "geometry": {"type": "Point", "coordinates": [-1.5826, 12.3876]}}, {"type": "Feature", "properties": {"name": "\u00c9cole Tanghin Barrage A B C", "amenity": "school"}, "geometry": {"type": "Point", "coordinates": [-1.5315, 12.3946]}}, {"type": "Feature", "properties": {"name": "\u00c9cole Tanghin A", "amenity": "school"}, "geometry": {"type": "Point", "coordinates": [-1.5182, 12.4051]}}, {"type": "Feature", "properties": {"name": "\u00c9cole Kossodo A D", "amenity": "school"}, "geometry": {"type": "Point", "coordinates": [-1.4685, 12.4168]}}, {"type": "Feature", "properties": {"name": "Ecole franco-arabe", "amenity": "school"}, "geometry": {"type": "Point", "coordinates": [-1.5095, 12.4079]}}, {"type": "Feature", "properties": {"name": "Lyc\u00e9e Provencial de Tougan", "amenity": "school"}, "geometry": {"type": "Point", "coordinates": [-3.0701, 13.0692]}}, {"type": "Feature", "properties": {"name": "Lyc\u00e9e d\u00b4excellence Nour Alanour", "amenity": "school"}, "geometry": {"type": "Point", "coordinates": [-1.503, 12.4158]}}, {"type": "Feature", "properties": {"name": "Complexe scolaire de l\u00b4\u00c9glise Pentec\u00f4te", "amenity": "school"}, "geometry": {"type": "Point", "coordinates": [-1.506, 12.4129]}}, {"type": "Feature", "properties": {"name": "Ecole Somgand\u00e9 B D", "amenity": "school"}, "geometry": {"type": "Point", "coordinates": [-1.4992, 12.4124]}}, {"type": "Feature", "properties": {"name": "Ecole Somgand\u00e9 A C", "amenity": "school"}, "geometry": {"type": "Point", "coordinates": [-1.4909, 12.4112]}}, {"type": "Feature", "properties": {"name": "\u00c9cole Tampouy C", "amenity": "school"}, "geometry": {"type": "Point", "coordinates": [-1.5541, 12.3921]}}, {"type": "Feature", "properties": {"name": "\u00c9cole Wekim Yam", "amenity": "school"}, "geometry": {"type": "Point", "coordinates": [-1.5615, 12.3863]}}, {"type": "Feature", "properties": {"name": "\u00c9cole \"Le Messager\"", "amenity": "school"}, "geometry": {"type": "Point", "coordinates": [-1.5144, 12.3945]}}, {"type": "Feature", "properties": {"name": "Universit\u00e9 Libre du Burkina", "amenity": "university"}, "geometry": {"type": "Point", "coordinates": [-1.5082, 12.3991]}}, {"type": "Feature", "properties": {"name": "\u00c9cole \"Sabin Barrage\" A B C", "amenity": "school"}, "geometry": {"type": "Point", "coordinates": [-1.514, 12.3964]}}, {"type": "Feature", "properties": {"name": "FANGA e.V.", "amenity": "school"}, "geometry": {"type": "Point", "coordinates": [-4.732, 10.6393]}}, {"type": "Feature", "properties": {"name": "\u00c9cole primaire publique Centre \"B et C\"", "amenity": "school"}, "geometry": {"type": "Point", "coordinates": [-4.7595, 10.6396]}}, {"type": "Feature", "properties": {"name": "Centre de Formation Beneb Nooma", "amenity": "school"}, "geometry": {"type": "Point", "coordinates": [-2.3803, 12.2621]}}, {"type": "Feature", "properties": {"name": "Ecole Kiswensida", "amenity": "school"}, "geometry": {"type": "Point", "coordinates": [-1.5081, 12.3999]}}, {"type": "Feature", "properties": {"name": "Coll\u00e8ge Protestant", "amenity": "school"}, "geometry": {"type": "Point", "coordinates": [-1.5187, 12.3925]}}, {"type": "Feature", "properties": {"name": "Ecole Wendenda", "amenity": "school"}, "geometry": {"type": "Point", "coordinates": [-1.5494, 12.3962]}}, {"type": "Feature", "properties": {"name": "Lyc\u00e9e de Dori", "amenity": "school"}, "geometry": {"type": "Point", "coordinates": [-0.0261, 14.0266]}}, {"type": "Feature", "properties": {"name": "Centre de Formation Saint-Camille", "amenity": "school"}, "geometry": {"type": "Point", "coordinates": [-1.4957, 12.3659]}}, {"type": "Feature", "properties": {"name": "Complexe scolaire b\u00e9niso", "amenity": "school"}, "geometry": {"type": "Point", "coordinates": [-1.5394, 12.3969]}}, {"type": "Feature", "properties": {"name": "Centre de Formation Professionnelle Religieuse", "amenity": "college"}, "geometry": {"type": "Point", "coordinates": [-1.5354, 12.3601]}}, {"type": "Feature", "properties": {"name": "\u00c9cole Mixte St-Joseph", "amenity": "school"}, "geometry": {"type": "Point", "coordinates": [-1.4981, 12.3485]}}, {"type": "Feature", "properties": {"name": "Goumba Lankound\u00e9", "amenity": "school"}, "geometry": {"type": "Point", "coordinates": [-1.5003, 12.3445]}}, {"type": "Feature", "properties": {"name": "\u00c9cole Faso Baara", "amenity": "school"}, "geometry": {"type": "Point", "coordinates": [-1.5042, 12.3389]}}, {"type": "Feature", "properties": {"name": "Grand Seminaire St Jean", "amenity": "university"}, "geometry": {"type": "Point", "coordinates": [-1.5504, 12.4091]}}, {"type": "Feature", "properties": {"name": "2iE", "amenity": "university"}, "geometry": {"type": "Point", "coordinates": [-1.5569, 12.4595]}}, {"type": "Feature", "properties": {"name": "S\u00e9minaire de Pabr\u00e9", "amenity": "school"}, "geometry": {"type": "Point", "coordinates": [-1.5773, 12.5105]}}, {"type": "Feature", "properties": {"name": "Ecole priv\u00e9e apostolique", "amenity": "school"}, "geometry": {"type": "Point", "coordinates": [-1.5364, 12.3927]}}, {"type": "Feature", "properties": {"name": "Instutit Africain de Management (IAM)", "amenity": "college"}, "geometry": {"type": "Point", "coordinates": [-1.502, 12.327]}}, {"type": "Feature", "properties": {"name": "\u00c9cole primaire Nanoro B", "amenity": "school"}, "geometry": {"type": "Point", "coordinates": [-2.1683, 12.6789]}}, {"type": "Feature", "properties": {"name": "\u00c9cole primaire de Zoetgomd\u00e9", "amenity": "school"}, "geometry": {"type": "Point", "coordinates": [-2.2029, 12.5535]}}, {"type": "Feature", "properties": {"name": "\u00c9cole primaire de Gognam", "amenity": "school"}, "geometry": {"type": "Point", "coordinates": [-2.1128, 12.6848]}}, {"type": "Feature", "properties": {"name": "\u00c9cole primaire de Basziri", "amenity": "school"}, "geometry": {"type": "Point", "coordinates": [-2.2143, 12.657]}}, {"type": "Feature", "properties": {"name": "\u00c9cole primaire Nazoanga C", "amenity": "school"}, "geometry": {"type": "Point", "coordinates": [-2.1121, 12.6057]}}, {"type": "Feature", "properties": {"name": "\u00c9cole primaire de Kalkawa", "amenity": "school"}, "geometry": {"type": "Point", "coordinates": [-2.177, 12.5659]}}, {"type": "Feature", "properties": {"name": "\u00c9cole primaire de Goghin", "amenity": "school"}, "geometry": {"type": "Point", "coordinates": [-2.1772, 12.51]}}, {"type": "Feature", "properties": {"name": "\u00c9cole primaire de Bissiguin", "amenity": "school"}, "geometry": {"type": "Point", "coordinates": [-2.0274, 12.5691]}}, {"type": "Feature", "properties": {"name": "\u00c9cole primaire de Tendamto\u00e8ga", "amenity": "school"}, "geometry": {"type": "Point", "coordinates": [-2.0225, 12.5428]}}, {"type": "Feature", "properties": {"name": "Lyc\u00e9e de Soaw", "amenity": "school"}, "geometry": {"type": "Point", "coordinates": [-2.1761, 12.5167]}}, {"type": "Feature", "properties": {"name": "\u00c9cole primaire de Sarana", "amenity": "school"}, "geometry": {"type": "Point", "coordinates": [-2.0923, 12.5884]}}, {"type": "Feature", "properties": {"name": "Lyc\u00e9e d\u00e9partemental de Nanoro", "amenity": "school"}, "geometry": {"type": "Point", "coordinates": [-2.1957, 12.6835]}}, {"type": "Feature", "properties": {"name": "\u00c9cole primaire Nanoro C", "amenity": "school"}, "geometry": {"type": "Point", "coordinates": [-2.1871, 12.6928]}}, {"type": "Feature", "properties": {"name": "Centre St Philippe de Koup\u00e9la", "amenity": "school"}, "geometry": {"type": "Point", "coordinates": [-0.3645, 12.1642]}}, {"type": "Feature", "properties": {"name": "\u00c9cole primaire de Soum", "amenity": "school"}, "geometry": {"type": "Point", "coordinates": [-2.2963, 12.5959]}}, {"type": "Feature", "properties": {"name": "\u00c9cole maternelle de Nanoro", "amenity": "school"}, "geometry": {"type": "Point", "coordinates": [-2.1866, 12.6937]}}, {"type": "Feature", "properties": {"name": "\u00c9cole primaire de Koayiri", "amenity": "school"}, "geometry": {"type": "Point", "coordinates": [-2.0526, 12.5664]}}, {"type": "Feature", "properties": {"name": "\u00c9cole primaire de Kandaga", "amenity": "school"}, "geometry": {"type": "Point", "coordinates": [-2.004, 12.5884]}}, {"type": "Feature", "properties": {"name": "\u00c9cole primaire Goala A", "amenity": "school"}, "geometry": {"type": "Point", "coordinates": [-2.0939, 12.5622]}}, {"type": "Feature", "properties": {"name": "\u00c9cole primaire de Kirguilounga", "amenity": "school"}, "geometry": {"type": "Point", "coordinates": [-2.0538, 12.6123]}}, {"type": "Feature", "properties": {"name": "\u00c9cole primaire de Godo Pella", "amenity": "school"}, "geometry": {"type": "Point", "coordinates": [-1.9889, 12.617]}}, {"type": "Feature", "properties": {"name": "Ecole du ch\u00e2teau", "amenity": "school"}, "geometry": {"type": "Point", "coordinates": [-1.4815, 12.3548]}}, {"type": "Feature", "properties": {"name": "Ecole du ch\u00e2teau", "amenity": "school"}, "geometry": {"type": "Point", "coordinates": [-1.482, 12.3542]}}, {"type": "Feature", "properties": {"name": "Ecole du ch\u00e2teau", "amenity": "school"}, "geometry": {"type": "Point", "coordinates": [-1.4822, 12.3542]}}, {"type": "Feature", "properties": {"name": "Ecole du ch\u00e2teau", "amenity": "school"}, "geometry": {"type": "Point", "coordinates": [-1.482, 12.3541]}}, {"type": "Feature", "properties": {"name": "\u00c9cole primaire de Poesse", "amenity": "school"}, "geometry": {"type": "Point", "coordinates": [-2.114, 12.5569]}}, {"type": "Feature", "properties": {"name": "\u00c9cole primaire de Tanglongo", "amenity": "school"}, "geometry": {"type": "Point", "coordinates": [-2.1902, 12.5296]}}, {"type": "Feature", "properties": {"name": "\u00c9cole primaire de Mogdin", "amenity": "school"}, "geometry": {"type": "Point", "coordinates": [-2.2367, 12.5756]}}, {"type": "Feature", "properties": {"name": "\u00c9cole Primaire Saint Jean-Baptiste", "amenity": "school"}, "geometry": {"type": "Point", "coordinates": [-2.1999, 12.692]}}, {"type": "Feature", "properties": {"name": "\u00c9cole primaire de Zikiemdin", "amenity": "school"}, "geometry": {"type": "Point", "coordinates": [-2.1911, 12.4618]}}, {"type": "Feature", "properties": {"name": "\u00c9cole primaire de Zag Yiri", "amenity": "school"}, "geometry": {"type": "Point", "coordinates": [-2.1392, 12.4982]}}, {"type": "Feature", "properties": {"name": "CEG S\u00e9gu\u00e9din Nanoro", "amenity": "school"}, "geometry": {"type": "Point", "coordinates": [-2.0213, 12.679]}}, {"type": "Feature", "properties": {"name": "CEG de Poesse", "amenity": "school"}, "geometry": {"type": "Point", "coordinates": [-2.1135, 12.5465]}}, {"type": "Feature", "properties": {"name": "\u00c9cole primaire de Tilla", "amenity": "school"}, "geometry": {"type": "Point", "coordinates": [-2.1272, 12.5359]}}, {"type": "Feature", "properties": {"name": "\u00c9cole primaire de Toessin", "amenity": "school"}, "geometry": {"type": "Point", "coordinates": [-2.1538, 12.5753]}}, {"type": "Feature", "properties": {"name": "\u00c9cole primaire Nazoanga A", "amenity": "school"}, "geometry": {"type": "Point", "coordinates": [-2.13, 12.623]}}, {"type": "Feature", "properties": {"name": "CEG de Nazoanga", "amenity": "school"}, "geometry": {"type": "Point", "coordinates": [-2.1516, 12.6035]}}, {"type": "Feature", "properties": {"name": "\u00c9cole primaire de Goulour\u00e9", "amenity": "school"}, "geometry": {"type": "Point", "coordinates": [-2.2375, 12.6473]}}, {"type": "Feature", "properties": {"name": "\u00c9cole primaire de Kokolo", "amenity": "school"}, "geometry": {"type": "Point", "coordinates": [-2.2079, 12.6078]}}, {"type": "Feature", "properties": {"name": "\u00c9cole primaire Nazoanga D", "amenity": "school"}, "geometry": {"type": "Point", "coordinates": [-2.1748, 12.6034]}}, {"type": "Feature", "properties": {"name": "\u00c9cole primaire Nanoro A", "amenity": "school"}, "geometry": {"type": "Point", "coordinates": [-2.1951, 12.6875]}}, {"type": "Feature", "properties": {"name": "\u00c9cole primaire de Poessi", "amenity": "school"}, "geometry": {"type": "Point", "coordinates": [-2.1324, 12.6849]}}, {"type": "Feature", "properties": {"name": "\u00c9cole primaire Pella B", "amenity": "school"}, "geometry": {"type": "Point", "coordinates": [-2.0544, 12.5838]}}, {"type": "Feature", "properties": {"name": "Lyc\u00e9e Nicolas Perrin", "amenity": "school"}, "geometry": {"type": "Point", "coordinates": [-2.0791, 12.6535]}}, {"type": "Feature", "properties": {"name": "Ecole Nationale de Sant\u00e9 Publique (ENSP)", "amenity": "school"}, "geometry": {"type": "Point", "coordinates": [-2.3672, 12.256]}}, {"type": "Feature", "properties": {"name": "ecoleprimaire de kera", "amenity": "school"}, "geometry": {"type": "Point", "coordinates": [-2.7234, 12.6946]}}, {"type": "Feature", "properties": {"name": "\u00c9cole Primaire \"Nelson Mandela\"", "amenity": "school"}, "geometry": {"type": "Point", "coordinates": [-1.5524, 12.3344]}}, {"type": "Feature", "properties": {"name": "Lyc\u00e9e LTPAD", "amenity": "school"}, "geometry": {"type": "Point", "coordinates": [-1.5531, 12.3283]}}, {"type": "Feature", "properties": {"name": "Institut Sup\u00e9rieur Priv\u00e9 de Management", "amenity": "university"}, "geometry": {"type": "Point", "coordinates": [-1.4924, 12.357]}}, {"type": "Feature", "properties": {"name": "\u00c9cole Catholique", "amenity": "school"}, "geometry": {"type": "Point", "coordinates": [-3.0653, 13.074]}}, {"type": "Feature", "properties": {"name": "Lyc\u00e9e communal de Tougan", "amenity": "school"}, "geometry": {"type": "Point", "coordinates": [-3.0833, 13.0749]}}, {"type": "Feature", "properties": {"name": "Ecole Primaire Priv\u00e9e Protestante", "amenity": "school"}, "geometry": {"type": "Point", "coordinates": [-2.3422, 12.2581]}}, {"type": "Feature", "properties": {"name": "les laur\u00e9ats", "amenity": "school"}, "geometry": {"type": "Point", "coordinates": [-1.5148, 12.3052]}}, {"type": "Feature", "properties": {"name": "Lyc\u00e9e de Pella", "amenity": "school"}, "geometry": {"type": "Point", "coordinates": [-2.0407, 12.5821]}}, {"type": "Feature", "properties": {"name": "\u00c9cole primaire de Godo", "amenity": "school"}, "geometry": {"type": "Point", "coordinates": [-2.1514, 12.7291]}}, {"type": "Feature", "properties": {"name": "\u00c9cole primaire de Zimidin", "amenity": "school"}, "geometry": {"type": "Point", "coordinates": [-2.1621, 12.6498]}}, {"type": "Feature", "properties": {"name": "\u00c9cole primaire de Daciss\u00e9", "amenity": "school"}, "geometry": {"type": "Point", "coordinates": [-2.2958, 12.6526]}}, {"type": "Feature", "properties": {"name": "\u00c9cole primaire de Boulpon", "amenity": "school"}, "geometry": {"type": "Point", "coordinates": [-2.0721, 12.6535]}}, {"type": "Feature", "properties": {"name": "\u00c9cole primaire de Sitaon", "amenity": "school"}, "geometry": {"type": "Point", "coordinates": [-2.1056, 12.6426]}}, {"type": "Feature", "properties": {"name": "\u00c9cole primaire de Soala", "amenity": "school"}, "geometry": {"type": "Point", "coordinates": [-1.9678, 12.6653]}}, {"type": "Feature", "properties": {"name": "\u00c9cole primaire de Babouli", "amenity": "school"}, "geometry": {"type": "Point", "coordinates": [-2.0096, 12.6381]}}, {"type": "Feature", "properties": {"name": "\u00c9cole primaire S\u00e9gu\u00e9din A", "amenity": "school"}, "geometry": {"type": "Point", "coordinates": [-2.0211, 12.6861]}}, {"type": "Feature", "properties": {"name": "Lyc\u00e9e d\u00e9partemental", "amenity": "school"}, "geometry": {"type": "Point", "coordinates": [-2.5865, 13.3949]}}, {"type": "Feature", "properties": {"name": "Centre d'alphab\u00e9tisation", "amenity": "school"}, "geometry": {"type": "Point", "coordinates": [-0.6036, 12.3827]}}, {"type": "Feature", "properties": {"name": "Ecole primaire A", "amenity": "school"}, "geometry": {"type": "Point", "coordinates": [-3.9657, 12.5745]}}, {"type": "Feature", "properties": {"name": "CEG de Goni", "amenity": "school"}, "geometry": {"type": "Point", "coordinates": [-3.9702, 12.571]}}, {"type": "Feature", "properties": {"name": "CEG de Goni", "amenity": "school"}, "geometry": {"type": "Point", "coordinates": [-3.9703, 12.5703]}}, {"type": "Feature", "properties": {"name": "CEG de Goni", "amenity": "school"}, "geometry": {"type": "Point", "coordinates": [-3.9706, 12.5708]}}, {"type": "Feature", "properties": {"name": "Ecole primaire de Sikoro", "amenity": "school"}, "geometry": {"type": "Point", "coordinates": [-3.7787, 12.6255]}}, {"type": "Feature", "properties": {"name": "Lyc\u00e9e provincial de Yako", "amenity": "school"}, "geometry": {"type": "Point", "coordinates": [-2.2759, 12.9597]}}, {"type": "Feature", "properties": {"name": "Gueswind\u00e9", "amenity": "school"}, "geometry": {"type": "Point", "coordinates": [-1.555, 12.3284]}}, {"type": "Feature", "properties": {"name": "Ecole franco-arabe", "amenity": "school"}, "geometry": {"type": "Point", "coordinates": [-0.606, 12.3771]}}, {"type": "Feature", "properties": {"name": "ECOLE RIMKIETA", "amenity": "school"}, "geometry": {"type": "Point", "coordinates": [-1.5856, 12.3782]}}, {"type": "Feature", "properties": {"name": "Ecole Filles du C\u0153ur de Marie", "amenity": "school"}, "geometry": {"type": "Point", "coordinates": [-2.3616, 12.2559]}}, {"type": "Feature", "properties": {"name": "\u00c9cole primaire de Vir\u00e9-Songdin", "amenity": "school"}, "geometry": {"type": "Point", "coordinates": [-2.5547, 13.4157]}}, {"type": "Feature", "properties": {"name": "Ecole primaire de Touri", "amenity": "school"}, "geometry": {"type": "Point", "coordinates": [-2.6429, 13.3953]}}, {"type": "Feature", "properties": {"name": "Ecole", "amenity": "school"}, "geometry": {"type": "Point", "coordinates": [-1.5889, 12.2623]}}, {"type": "Feature", "properties": {"name": "Ecole", "amenity": "school"}, "geometry": {"type": "Point", "coordinates": [-1.5672, 12.2721]}}, {"type": "Feature", "properties": {"name": "Ecole Nasser Hamed", "amenity": "school"}, "geometry": {"type": "Point", "coordinates": [-1.6344, 12.4115]}}, {"type": "Feature", "properties": {"name": "Ecole Nasser Hamed", "amenity": "school"}, "geometry": {"type": "Point", "coordinates": [-1.6346, 12.4119]}}, {"type": "Feature", "properties": {"name": "CEB I", "amenity": "school"}, "geometry": {"type": "Point", "coordinates": [-0.4312, 12.2519]}}, {"type": "Feature", "properties": {"name": "Lycee Priv\u00e9 Oudisongd\u00e9", "amenity": "school"}, "geometry": {"type": "Point", "coordinates": [-1.4624, 12.4004]}}, {"type": "Feature", "properties": {"name": "Lycee provincial Mollo SANOU", "amenity": "school"}, "geometry": {"type": "Point", "coordinates": [-4.2805, 11.1642]}}, {"type": "Feature", "properties": {"name": "Institut National des Sciences de la Sant\u00e9", "amenity": "university"}, "geometry": {"type": "Point", "coordinates": [-4.3622, 11.1821]}}, {"type": "Feature", "properties": {"name": "LYCEE MUNICIPAL SANY SANNON", "amenity": "school"}, "geometry": {"type": "Point", "coordinates": [-4.3094, 11.2218]}}, {"type": "Feature", "properties": {"name": "Lyc\u00e9e priv\u00e9 Les Buissonnets", "amenity": "school"}, "geometry": {"type": "Point", "coordinates": [-1.6521, 12.3184]}}, {"type": "Feature", "properties": {"name": "Coll\u00e8ge Germinal", "amenity": "school"}, "geometry": {"type": "Point", "coordinates": [-2.3926, 12.2472]}}, {"type": "Feature", "properties": {"name": "Wend Penga", "amenity": "school"}, "geometry": {"type": "Point", "coordinates": [-2.3888, 12.2522]}}, {"type": "Feature", "properties": {"name": "\u00c9cole primaire Centre A &B", "amenity": "school"}, "geometry": {"type": "Point", "coordinates": [-2.3674, 12.2497]}}, {"type": "Feature", "properties": {"name": "\u00c9cole primaire Tarwende", "amenity": "school"}, "geometry": {"type": "Point", "coordinates": [-1.5401, 12.3366]}}, {"type": "Feature", "properties": {"name": "Compl\u00e8xe scolaire Berekia", "amenity": "school"}, "geometry": {"type": "Point", "coordinates": [-2.0819, 11.1248]}}, {"type": "Feature", "properties": {"name": "\u00c9cole primaire publique Komki A", "amenity": "school"}, "geometry": {"type": "Point", "coordinates": [-1.8012, 12.1885]}}, {"type": "Feature", "properties": {"name": "\u00c9cole primaire publique de Vipalogo", "amenity": "school"}, "geometry": {"type": "Point", "coordinates": [-1.7641, 12.1182]}}, {"type": "Feature", "properties": {"name": "Coll\u00e8ge Sainte Th\u00e9r\u00e8se de Banfora", "amenity": "school"}, "geometry": {"type": "Point", "coordinates": [-4.7567, 10.6401]}}, {"type": "Feature", "properties": {"name": "ANPE", "amenity": "school"}, "geometry": {"type": "Point", "coordinates": [-4.7617, 10.6468]}}, {"type": "Feature", "properties": {"name": "Association Munyu", "amenity": "school"}, "geometry": {"type": "Point", "coordinates": [-4.7611, 10.6378]}}, {"type": "Feature", "properties": {"name": "Institut Sacr\u00e9 Coeur de Banfora", "amenity": "school"}, "geometry": {"type": "Point", "coordinates": [-4.7477, 10.6458]}}, {"type": "Feature", "properties": {"name": "Lyc\u00e9e Priv\u00e9 Elkana", "amenity": "school"}, "geometry": {"type": "Point", "coordinates": [-4.2972, 11.1775]}}, {"type": "Feature", "properties": {"name": "Cit\u00e9 Universitaire de Kossodo", "amenity": "university"}, "geometry": {"type": "Point", "coordinates": [-1.4692, 12.4291]}}, {"type": "Feature", "properties": {"name": "COLLEGE LE RONIER", "amenity": "school"}, "geometry": {"type": "Point", "coordinates": [-1.4668, 12.3282]}}, {"type": "Feature", "properties": {"name": "Ecole Djanabamba", "amenity": "school"}, "geometry": {"type": "Point", "coordinates": [-4.7596, 10.6502]}}, {"type": "Feature", "properties": {"name": "\u00c9cole A", "amenity": "school"}, "geometry": {"type": "Point", "coordinates": [-3.2467, 10.9713]}}, {"type": "Feature", "properties": {"name": "Coll\u00e8ge La Salle", "amenity": "school"}, "geometry": {"type": "Point", "coordinates": [-1.5255, 12.3642]}}, {"type": "Feature", "properties": {"name": "Lyc\u00e9e Priv\u00e9 la Verdure", "amenity": "university"}, "geometry": {"type": "Point", "coordinates": [-1.5566, 12.3909]}}, {"type": "Feature", "properties": {"name": "Ecole superieure SUP MANAGEMENT", "amenity": "university"}, "geometry": {"type": "Point", "coordinates": [-1.5569, 12.3877]}}, {"type": "Feature", "properties": {"name": "Ecole", "amenity": "school"}, "geometry": {"type": "Point", "coordinates": [-0.719, 13.5983]}}, {"type": "Feature", "properties": {"name": "Ecole Primaire DIARADOUGOU", "amenity": "school"}, "geometry": {"type": "Point", "coordinates": [-4.3021, 11.1888]}}, {"type": "Feature", "properties": {"name": "Complexe Scolaire LE SAVOIRE", "amenity": "school"}, "geometry": {"type": "Point", "coordinates": [-4.3191, 11.1968]}}, {"type": "Feature", "properties": {"name": "\u00c9cole maternelle primaire \"THEA\"", "amenity": "school"}, "geometry": {"type": "Point", "coordinates": [-1.5254, 12.3298]}}, {"type": "Feature", "properties": {"name": "Groupe scolaire Saint Jean", "amenity": "school"}, "geometry": {"type": "Point", "coordinates": [-1.5507, 12.3445]}}, {"type": "Feature", "properties": {"name": "\u00c9cole de Basza\u00efdo", "amenity": "school"}, "geometry": {"type": "Point", "coordinates": [-2.3872, 13.2936]}}, {"type": "Feature", "properties": {"name": "EPP DOUA DRABO", "amenity": "school"}, "geometry": {"type": "Point", "coordinates": [-3.0734, 13.0757]}}, {"type": "Feature", "properties": {"name": "Ecole (projet)", "amenity": "school"}, "geometry": {"type": "Point", "coordinates": [-0.1542, 12.2237]}}, {"type": "Feature", "properties": {"name": "CEG ?", "amenity": "school"}, "geometry": {"type": "Point", "coordinates": [-0.1213, 12.2259]}}, {"type": "Feature", "properties": {"name": "Ecole primaire", "amenity": "school"}, "geometry": {"type": "Point", "coordinates": [-0.1575, 12.228]}}, {"type": "Feature", "properties": {"name": "Ecole primaire", "amenity": "school"}, "geometry": {"type": "Point", "coordinates": [-0.1092, 12.2446]}}, {"type": "Feature", "properties": {"name": "M\u00e9dersa", "amenity": "school"}, "geometry": {"type": "Point", "coordinates": [-0.1206, 12.2425]}}, {"type": "Feature", "properties": {"name": "Ecole primaire Barjongo", "amenity": "school"}, "geometry": {"type": "Point", "coordinates": [-0.1295, 12.2418]}}, {"type": "Feature", "properties": {"name": "Ecole primaire", "amenity": "school"}, "geometry": {"type": "Point", "coordinates": [-2.3248, 12.5348]}}, {"type": "Feature", "properties": {"name": "Ecole primaire priv\u00e9e mixte la voie du succ\u00e8s 1", "amenity": "school"}, "geometry": {"type": "Point", "coordinates": [-1.5543, 12.3822]}}, {"type": "Feature", "properties": {"name": "Ecole primaire", "amenity": "school"}, "geometry": {"type": "Point", "coordinates": [-2.3696, 12.4956]}}, {"type": "Feature", "properties": {"name": "Lyc\u00e9e communal", "amenity": "school"}, "geometry": {"type": "Point", "coordinates": [-2.3648, 12.6017]}}, {"type": "Feature", "properties": {"name": "Ecole", "amenity": "school"}, "geometry": {"type": "Point", "coordinates": [-2.3622, 12.598]}}, {"type": "Feature", "properties": {"name": "Ecole primaire", "amenity": "school"}, "geometry": {"type": "Point", "coordinates": [-2.2484, 12.6427]}}, {"type": "Feature", "properties": {"name": "Ecole primaire", "amenity": "school"}, "geometry": {"type": "Point", "coordinates": [-2.2684, 12.6157]}}, {"type": "Feature", "properties": {"name": "CEG", "amenity": "school"}, "geometry": {"type": "Point", "coordinates": [-2.3623, 12.609]}}, {"type": "Feature", "properties": {"name": "Ecole primaire", "amenity": "school"}, "geometry": {"type": "Point", "coordinates": [-2.3182, 12.6228]}}, {"type": "Feature", "properties": {"name": "Ecole primaire de Gogo-Soum", "amenity": "school"}, "geometry": {"type": "Point", "coordinates": [-2.3243, 12.612]}}, {"type": "Feature", "properties": {"name": "Ecole primaire", "amenity": "school"}, "geometry": {"type": "Point", "coordinates": [-2.306, 12.5247]}}, {"type": "Feature", "properties": {"name": "CEG", "amenity": "school"}, "geometry": {"type": "Point", "coordinates": [-1.4165, 11.9329]}}, {"type": "Feature", "properties": {"name": "Ecole primaire", "amenity": "school"}, "geometry": {"type": "Point", "coordinates": [-1.3881, 11.9914]}}, {"type": "Feature", "properties": {"name": "Ecole primaire", "amenity": "school"}, "geometry": {"type": "Point", "coordinates": [-0.0617, 12.2342]}}, {"type": "Feature", "properties": {"name": "Ecole primaire", "amenity": "school"}, "geometry": {"type": "Point", "coordinates": [-0.1781, 12.1632]}}, {"type": "Feature", "properties": {"name": "Ecole primaire", "amenity": "school"}, "geometry": {"type": "Point", "coordinates": [-0.1898, 12.1975]}}, {"type": "Feature", "properties": {"name": "CEG", "amenity": "school"}, "geometry": {"type": "Point", "coordinates": [-0.1739, 12.1906]}}, {"type": "Feature", "properties": {"name": "Ecole primaire", "amenity": "school"}, "geometry": {"type": "Point", "coordinates": [-0.1757, 12.2011]}}, {"type": "Feature", "properties": {"name": "Ecole primaire", "amenity": "school"}, "geometry": {"type": "Point", "coordinates": [-0.1741, 12.1928]}}, {"type": "Feature", "properties": {"name": "Ecole primaire", "amenity": "school"}, "geometry": {"type": "Point", "coordinates": [-2.2527, 12.582]}}, {"type": "Feature", "properties": {"name": "Ecole ?", "amenity": "school"}, "geometry": {"type": "Point", "coordinates": [-1.3435, 12.078]}}, {"type": "Feature", "properties": {"name": "Ecole ?", "amenity": "school"}, "geometry": {"type": "Point", "coordinates": [-1.3421, 12.0781]}}, {"type": "Feature", "properties": {"name": "M\u00e9dersa", "amenity": "school"}, "geometry": {"type": "Point", "coordinates": [-1.3478, 12.0732]}}, {"type": "Feature", "properties": {"name": "Centre alpha?", "amenity": "school"}, "geometry": {"type": "Point", "coordinates": [-1.357, 12.1021]}}, {"type": "Feature", "properties": {"name": "Projet d'\u00e9cole", "amenity": "school"}, "geometry": {"type": "Point", "coordinates": [-1.3703, 12.0939]}}, {"type": "Feature", "properties": {"name": "M\u00e9dersa", "amenity": "school"}, "geometry": {"type": "Point", "coordinates": [-1.3585, 12.1074]}}, {"type": "Feature", "properties": {"name": "Ecole primaire", "amenity": "school"}, "geometry": {"type": "Point", "coordinates": [-1.2982, 12.1147]}}, {"type": "Feature", "properties": {"name": "Ecole primaire", "amenity": "school"}, "geometry": {"type": "Point", "coordinates": [-1.2222, 11.939]}}, {"type": "Feature", "properties": {"name": "Centre alpha?", "amenity": "school"}, "geometry": {"type": "Point", "coordinates": [-1.35, 12.0826]}}, {"type": "Feature", "properties": {"name": "Ecole primaire", "amenity": "school"}, "geometry": {"type": "Point", "coordinates": [-2.3497, 12.5916]}}, {"type": "Feature", "properties": {"name": "CEG", "amenity": "school"}, "geometry": {"type": "Point", "coordinates": [-2.3711, 12.5741]}}, {"type": "Feature", "properties": {"name": "Ecole primaire", "amenity": "school"}, "geometry": {"type": "Point", "coordinates": [-2.3625, 12.5893]}}, {"type": "Feature", "properties": {"name": "Ecole primaire", "amenity": "school"}, "geometry": {"type": "Point", "coordinates": [-2.1299, 12.4276]}}, {"type": "Feature", "properties": {"name": "Ecole primaire", "amenity": "school"}, "geometry": {"type": "Point", "coordinates": [-2.1675, 12.4409]}}, {"type": "Feature", "properties": {"name": "Ecole primaire", "amenity": "school"}, "geometry": {"type": "Point", "coordinates": [-2.1618, 12.3909]}}, {"type": "Feature", "properties": {"name": "Ecole primaire", "amenity": "school"}, "geometry": {"type": "Point", "coordinates": [-2.174, 12.4025]}}, {"type": "Feature", "properties": {"name": "Ecole primaire", "amenity": "school"}, "geometry": {"type": "Point", "coordinates": [-2.1816, 12.4218]}}, {"type": "Feature", "properties": {"name": "M\u00e9dersa", "amenity": "school"}, "geometry": {"type": "Point", "coordinates": [-1.338, 11.9045]}}, {"type": "Feature", "properties": {"name": "CEG", "amenity": "school"}, "geometry": {"type": "Point", "coordinates": [-2.1885, 12.4625]}}, {"type": "Feature", "properties": {"name": "Ecole primaire", "amenity": "school"}, "geometry": {"type": "Point", "coordinates": [-2.2055, 12.3936]}}, {"type": "Feature", "properties": {"name": "Ecole primaire", "amenity": "school"}, "geometry": {"type": "Point", "coordinates": [-2.2129, 12.4298]}}, {"type": "Feature", "properties": {"name": "CEG", "amenity": "school"}, "geometry": {"type": "Point", "coordinates": [-2.2073, 12.4627]}}, {"type": "Feature", "properties": {"name": "Ecole primaire", "amenity": "school"}, "geometry": {"type": "Point", "coordinates": [-2.3342, 12.6159]}}, {"type": "Feature", "properties": {"name": "Ecole primaire", "amenity": "school"}, "geometry": {"type": "Point", "coordinates": [-2.3558, 12.6368]}}, {"type": "Feature", "properties": {"name": "Ecole primaire", "amenity": "school"}, "geometry": {"type": "Point", "coordinates": [-2.3575, 12.6506]}}, {"type": "Feature", "properties": {"name": "Ecole primaire", "amenity": "school"}, "geometry": {"type": "Point", "coordinates": [-2.4019, 12.6085]}}, {"type": "Feature", "properties": {"name": "Ecole primaire", "amenity": "school"}, "geometry": {"type": "Point", "coordinates": [-2.1908, 12.4618]}}, {"type": "Feature", "properties": {"name": "Ecole primaire", "amenity": "school"}, "geometry": {"type": "Point", "coordinates": [-1.3587, 11.9992]}}, {"type": "Feature", "properties": {"name": "Ecole primaire", "amenity": "school"}, "geometry": {"type": "Point", "coordinates": [-1.3188, 12.0161]}}, {"type": "Feature", "properties": {"name": "Projet d'\u00e9cole", "amenity": "school"}, "geometry": {"type": "Point", "coordinates": [-1.3093, 12.0245]}}, {"type": "Feature", "properties": {"name": "Ecole primaire", "amenity": "school"}, "geometry": {"type": "Point", "coordinates": [-1.2577, 11.9623]}}, {"type": "Feature", "properties": {"name": "Pr\u00e9scolaire", "amenity": "kindergarten"}, "geometry": {"type": "Point", "coordinates": [-1.2423, 11.9957]}}, {"type": "Feature", "properties": {"name": "CEG", "amenity": "school"}, "geometry": {"type": "Point", "coordinates": [-2.3784, 12.483]}}, {"type": "Feature", "properties": {"name": "Ecole primaire", "amenity": "school"}, "geometry": {"type": "Point", "coordinates": [-2.3844, 12.4904]}}, {"type": "Feature", "properties": {"name": "CEG", "amenity": "school"}, "geometry": {"type": "Point", "coordinates": [-2.3861, 12.5956]}}, {"type": "Feature", "properties": {"name": "Ecole primaire", "amenity": "school"}, "geometry": {"type": "Point", "coordinates": [-2.3294, 12.574]}}, {"type": "Feature", "properties": {"name": "Ecole primaire", "amenity": "school"}, "geometry": {"type": "Point", "coordinates": [-2.3761, 12.5707]}}, {"type": "Feature", "properties": {"name": "Ecole primaire", "amenity": "school"}, "geometry": {"type": "Point", "coordinates": [-2.4155, 12.4891]}}, {"type": "Feature", "properties": {"name": "Ecole primaire", "amenity": "school"}, "geometry": {"type": "Point", "coordinates": [-2.441, 12.5729]}}, {"type": "Feature", "properties": {"name": "Ecole primaire", "amenity": "school"}, "geometry": {"type": "Point", "coordinates": [-2.4839, 12.5317]}}, {"type": "Feature", "properties": {"name": "CEG", "amenity": "school"}, "geometry": {"type": "Point", "coordinates": [-2.4913, 12.5573]}}, {"type": "Feature", "properties": {"name": "Ecole primaire", "amenity": "school"}, "geometry": {"type": "Point", "coordinates": [-2.4994, 12.5645]}}, {"type": "Feature", "properties": {"name": "Ecole primaire", "amenity": "school"}, "geometry": {"type": "Point", "coordinates": [-2.2643, 12.5644]}}, {"type": "Feature", "properties": {"name": "Ecole primaire", "amenity": "school"}, "geometry": {"type": "Point", "coordinates": [-2.3061, 12.551]}}, {"type": "Feature", "properties": {"name": "Ecole primaire", "amenity": "school"}, "geometry": {"type": "Point", "coordinates": [-2.3828, 12.5769]}}, {"type": "Feature", "properties": {"name": "Ecole primaire", "amenity": "school"}, "geometry": {"type": "Point", "coordinates": [0.0494, 12.2379]}}, {"type": "Feature", "properties": {"name": "Ecole primaire", "amenity": "school"}, "geometry": {"type": "Point", "coordinates": [0.0352, 12.2233]}}, {"type": "Feature", "properties": {"name": "Ecole primaire", "amenity": "school"}, "geometry": {"type": "Point", "coordinates": [0.0498, 12.1922]}}, {"type": "Feature", "properties": {"name": "Ecole primaire", "amenity": "school"}, "geometry": {"type": "Point", "coordinates": [-2.2878, 12.6248]}}, {"type": "Feature", "properties": {"name": "Ecole primaire", "amenity": "school"}, "geometry": {"type": "Point", "coordinates": [0.0358, 12.1952]}}, {"type": "Feature", "properties": {"name": "Centre alpha", "amenity": "school"}, "geometry": {"type": "Point", "coordinates": [0.0328, 12.1956]}}, {"type": "Feature", "properties": {"name": "Ecole primaire", "amenity": "school"}, "geometry": {"type": "Point", "coordinates": [0.053, 12.1682]}}, {"type": "Feature", "properties": {"name": "Ecole primaire", "amenity": "school"}, "geometry": {"type": "Point", "coordinates": [-0.013, 12.2098]}}, {"type": "Feature", "properties": {"name": "Ecole primaire", "amenity": "school"}, "geometry": {"type": "Point", "coordinates": [-1.4139, 11.9199]}}, {"type": "Feature", "properties": {"name": "Ecole primaire", "amenity": "school"}, "geometry": {"type": "Point", "coordinates": [-0.2312, 12.1668]}}, {"type": "Feature", "properties": {"name": "CEG", "amenity": "school"}, "geometry": {"type": "Point", "coordinates": [-0.23, 12.1845]}}, {"type": "Feature", "properties": {"name": "Ecole primaire", "amenity": "school"}, "geometry": {"type": "Point", "coordinates": [-0.2355, 12.1817]}}, {"type": "Feature", "properties": {"name": "Ecole primaire", "amenity": "school"}, "geometry": {"type": "Point", "coordinates": [-0.2355, 12.1809]}}, {"type": "Feature", "properties": {"name": "Ecole primaire", "amenity": "school"}, "geometry": {"type": "Point", "coordinates": [-0.2241, 12.1806]}}, {"type": "Feature", "properties": {"name": "Ecole primaire", "amenity": "school"}, "geometry": {"type": "Point", "coordinates": [-0.0311, 12.1965]}}, {"type": "Feature", "properties": {"name": "Ecole primaire", "amenity": "school"}, "geometry": {"type": "Point", "coordinates": [-0.0733, 12.1839]}}, {"type": "Feature", "properties": {"name": "Ecole primaire", "amenity": "school"}, "geometry": {"type": "Point", "coordinates": [-0.0785, 12.2055]}}, {"type": "Feature", "properties": {"name": "Ecole primaire", "amenity": "school"}, "geometry": {"type": "Point", "coordinates": [-0.252, 12.1704]}}, {"type": "Feature", "properties": {"name": "Ecole primaire", "amenity": "school"}, "geometry": {"type": "Point", "coordinates": [-0.2227, 12.1802]}}, {"type": "Feature", "properties": {"name": "Ecole primaire", "amenity": "school"}, "geometry": {"type": "Point", "coordinates": [-0.2186, 12.1708]}}, {"type": "Feature", "properties": {"name": "Ecole primaire", "amenity": "school"}, "geometry": {"type": "Point", "coordinates": [-0.2372, 12.2389]}}, {"type": "Feature", "properties": {"name": "Ecole primaire", "amenity": "school"}, "geometry": {"type": "Point", "coordinates": [-0.2193, 12.2563]}}, {"type": "Feature", "properties": {"name": "Ecole primaire B", "amenity": "school"}, "geometry": {"type": "Point", "coordinates": [-0.2202, 12.2859]}}, {"type": "Feature", "properties": {"name": "Ecole primaire", "amenity": "school"}, "geometry": {"type": "Point", "coordinates": [-0.2159, 12.2982]}}, {"type": "Feature", "properties": {"name": "Ecole primaire", "amenity": "school"}, "geometry": {"type": "Point", "coordinates": [-0.2457, 12.2621]}}, {"type": "Feature", "properties": {"name": "Ecole primaire A", "amenity": "school"}, "geometry": {"type": "Point", "coordinates": [-0.1996, 12.2865]}}, {"type": "Feature", "properties": {"name": "Ecole primaire", "amenity": "school"}, "geometry": {"type": "Point", "coordinates": [0.054, 12.2691]}}, {"type": "Feature", "properties": {"name": "CEG", "amenity": "school"}, "geometry": {"type": "Point", "coordinates": [-0.196, 12.2887]}}, {"type": "Feature", "properties": {"name": "Ecole primaire", "amenity": "school"}, "geometry": {"type": "Point", "coordinates": [-2.3205, 13.4426]}}, {"type": "Feature", "properties": {"name": "Ecole primaire", "amenity": "school"}, "geometry": {"type": "Point", "coordinates": [-2.3081, 13.4736]}}, {"type": "Feature", "properties": {"name": "CEG", "amenity": "school"}, "geometry": {"type": "Point", "coordinates": [-2.3009, 13.4694]}}, {"type": "Feature", "properties": {"name": "Ecole primaire", "amenity": "school"}, "geometry": {"type": "Point", "coordinates": [-2.3163, 13.4653]}}, {"type": "Feature", "properties": {"name": "Ecole primaire", "amenity": "school"}, "geometry": {"type": "Point", "coordinates": [-0.2806, 12.2259]}}, {"type": "Feature", "properties": {"name": "CEG", "amenity": "school"}, "geometry": {"type": "Point", "coordinates": [-0.2818, 12.2199]}}, {"type": "Feature", "properties": {"name": "Ecole primaire", "amenity": "school"}, "geometry": {"type": "Point", "coordinates": [-0.0202, 12.2742]}}, {"type": "Feature", "properties": {"name": "Ecole primaire", "amenity": "school"}, "geometry": {"type": "Point", "coordinates": [-0.2013, 12.2678]}}, {"type": "Feature", "properties": {"name": "CEG", "amenity": "school"}, "geometry": {"type": "Point", "coordinates": [-0.1533, 12.2012]}}, {"type": "Feature", "properties": {"name": "CEG", "amenity": "school"}, "geometry": {"type": "Point", "coordinates": [-0.1288, 12.1959]}}, {"type": "Feature", "properties": {"name": "Ecole primaire", "amenity": "school"}, "geometry": {"type": "Point", "coordinates": [-0.1294, 12.2058]}}, {"type": "Feature", "properties": {"name": "Ecole primaire", "amenity": "school"}, "geometry": {"type": "Point", "coordinates": [-0.1218, 12.1968]}}, {"type": "Feature", "properties": {"name": "Ecole primaire", "amenity": "school"}, "geometry": {"type": "Point", "coordinates": [-0.0134, 12.1681]}}, {"type": "Feature", "properties": {"name": "Ecole primaire", "amenity": "school"}, "geometry": {"type": "Point", "coordinates": [-0.0861, 12.1632]}}, {"type": "Feature", "properties": {"name": "Ecole primaire", "amenity": "school"}, "geometry": {"type": "Point", "coordinates": [-0.0546, 12.1702]}}, {"type": "Feature", "properties": {"name": "Ecole primaire", "amenity": "school"}, "geometry": {"type": "Point", "coordinates": [-0.0551, 12.1696]}}, {"type": "Feature", "properties": {"name": "Ecole primaire", "amenity": "school"}, "geometry": {"type": "Point", "coordinates": [-0.0287, 12.2163]}}, {"type": "Feature", "properties": {"name": "Ecole primaire", "amenity": "school"}, "geometry": {"type": "Point", "coordinates": [-0.0093, 12.1818]}}, {"type": "Feature", "properties": {"name": "Ecole primaire", "amenity": "school"}, "geometry": {"type": "Point", "coordinates": [-0.1201, 12.2381]}}, {"type": "Feature", "properties": {"name": "EPP Bittou", "amenity": "school"}, "geometry": {"type": "Point", "coordinates": [-0.3068, 11.2645]}}, {"type": "Feature", "properties": {"name": "Complexe scolaire Baraka", "amenity": "school"}, "geometry": {"type": "Point", "coordinates": [-4.2818, 11.1377]}}, {"type": "Feature", "properties": {"name": "Complexe scolaire la r\u00e9f\u00e9rence", "amenity": "school"}, "geometry": {"type": "Point", "coordinates": [-4.2835, 11.1384]}}, {"type": "Feature", "properties": {"name": "Lyc\u00e9e Kourita de Koupela", "amenity": "school"}, "geometry": {"type": "Point", "coordinates": [-0.3643, 12.183]}}, {"type": "Feature", "properties": {"name": "M\u00e9dersa", "amenity": "school"}, "geometry": {"type": "Point", "coordinates": [-1.4685, 11.8733]}}, {"type": "Feature", "properties": {"name": "Projet (CEG?)", "amenity": "school"}, "geometry": {"type": "Point", "coordinates": [-1.4761, 11.872]}}, {"type": "Feature", "properties": {"name": "Ecole primaire", "amenity": "school"}, "geometry": {"type": "Point", "coordinates": [-0.0095, 12.1919]}}, {"type": "Feature", "properties": {"name": "Ecole Primaire Priv\u00e9e Esp\u00e9rance de Saaba", "amenity": "school"}, "geometry": {"type": "Point", "coordinates": [-1.3997, 12.369]}}, {"type": "Feature", "properties": {"name": "Ecole primaire", "amenity": "school"}, "geometry": {"type": "Point", "coordinates": [-0.0674, 12.2231]}}, {"type": "Feature", "properties": {"name": "CEG en construction", "amenity": "school"}, "geometry": {"type": "Point", "coordinates": [-0.0752, 12.231]}}, {"type": "Feature", "properties": {"name": "Ecole primaire", "amenity": "school"}, "geometry": {"type": "Point", "coordinates": [-0.0288, 12.2477]}}, {"type": "Feature", "properties": {"name": "Ecole primaire", "amenity": "school"}, "geometry": {"type": "Point", "coordinates": [-0.0531, 12.2392]}}, {"type": "Feature", "properties": {"name": "CEG", "amenity": "school"}, "geometry": {"type": "Point", "coordinates": [-0.0529, 12.2418]}}, {"type": "Feature", "properties": {"name": "CEG", "amenity": "school"}, "geometry": {"type": "Point", "coordinates": [-0.0875, 12.3045]}}, {"type": "Feature", "properties": {"name": "Ecole primaire", "amenity": "school"}, "geometry": {"type": "Point", "coordinates": [-0.0908, 12.2979]}}, {"type": "Feature", "properties": {"name": "Ecole primaire", "amenity": "school"}, "geometry": {"type": "Point", "coordinates": [-0.156, 12.2052]}}, {"type": "Feature", "properties": {"name": "Ecole primaire", "amenity": "school"}, "geometry": {"type": "Point", "coordinates": [-0.1464, 12.2732]}}, {"type": "Feature", "properties": {"name": "M\u00e9dersa", "amenity": "school"}, "geometry": {"type": "Point", "coordinates": [-0.1423, 12.2711]}}, {"type": "Feature", "properties": {"name": "Ecole primaire", "amenity": "school"}, "geometry": {"type": "Point", "coordinates": [-0.1159, 12.266]}}, {"type": "Feature", "properties": {"name": "Ecole primaire", "amenity": "school"}, "geometry": {"type": "Point", "coordinates": [-0.1582, 12.169]}}, {"type": "Feature", "properties": {"name": "Ecole primaire", "amenity": "school"}, "geometry": {"type": "Point", "coordinates": [-0.138, 12.167]}}, {"type": "Feature", "properties": {"name": "CEG", "amenity": "school"}, "geometry": {"type": "Point", "coordinates": [-0.1326, 12.1582]}}, {"type": "Feature", "properties": {"name": "Ecole", "amenity": "school"}, "geometry": {"type": "Point", "coordinates": [-0.1222, 12.163]}}, {"type": "Feature", "properties": {"name": "Ecole primaire", "amenity": "school"}, "geometry": {"type": "Point", "coordinates": [-0.1527, 12.1914]}}, {"type": "Feature", "properties": {"name": "Ecole primaire", "amenity": "school"}, "geometry": {"type": "Point", "coordinates": [-0.0957, 12.2997]}}, {"type": "Feature", "properties": {"name": "Ecole primaire", "amenity": "school"}, "geometry": {"type": "Point", "coordinates": [-1.7456, 12.2273]}}, {"type": "Feature", "properties": {"name": "Ecole primaire", "amenity": "school"}, "geometry": {"type": "Point", "coordinates": [-1.6438, 12.2599]}}, {"type": "Feature", "properties": {"name": "Ecole", "amenity": "school"}, "geometry": {"type": "Point", "coordinates": [-1.6798, 12.2866]}}, {"type": "Feature", "properties": {"name": "Ecole primaire", "amenity": "school"}, "geometry": {"type": "Point", "coordinates": [-1.7041, 12.277]}}, {"type": "Feature", "properties": {"name": "Ecole primaire", "amenity": "school"}, "geometry": {"type": "Point", "coordinates": [-1.6343, 12.2862]}}, {"type": "Feature", "properties": {"name": "CEG", "amenity": "school"}, "geometry": {"type": "Point", "coordinates": [-1.7132, 12.2828]}}, {"type": "Feature", "properties": {"name": "M\u00e9dersa", "amenity": "school"}, "geometry": {"type": "Point", "coordinates": [-1.7148, 12.2769]}}, {"type": "Feature", "properties": {"name": "Ecole primaire", "amenity": "school"}, "geometry": {"type": "Point", "coordinates": [-2.3844, 12.6014]}}, {"type": "Feature", "properties": {"name": "Ecole primaire", "amenity": "school"}, "geometry": {"type": "Point", "coordinates": [-1.7183, 12.2886]}}, {"type": "Feature", "properties": {"name": "Ecole primaire", "amenity": "school"}, "geometry": {"type": "Point", "coordinates": [-1.7185, 12.2819]}}, {"type": "Feature", "properties": {"name": "Ecole catholique Rimki\u00e9ma", "amenity": "school"}, "geometry": {"type": "Point", "coordinates": [-1.7192, 12.2782]}}, {"type": "Feature", "properties": {"name": "Ecole primaire", "amenity": "school"}, "geometry": {"type": "Point", "coordinates": [-1.7429, 12.3063]}}, {"type": "Feature", "properties": {"name": "Ecole primaire", "amenity": "school"}, "geometry": {"type": "Point", "coordinates": [-1.7599, 12.2699]}}, {"type": "Feature", "properties": {"name": "Ecole primaire", "amenity": "school"}, "geometry": {"type": "Point", "coordinates": [-1.7539, 12.2597]}}, {"type": "Feature", "properties": {"name": "Ecole primaire", "amenity": "school"}, "geometry": {"type": "Point", "coordinates": [-1.7623, 12.2353]}}, {"type": "Feature", "properties": {"name": "Ecole primaire", "amenity": "school"}, "geometry": {"type": "Point", "coordinates": [-1.776, 12.3058]}}, {"type": "Feature", "properties": {"name": "Ecole primaire", "amenity": "school"}, "geometry": {"type": "Point", "coordinates": [-1.747, 12.2847]}}, {"type": "Feature", "properties": {"name": "Ecole", "amenity": "school"}, "geometry": {"type": "Point", "coordinates": [-1.6645, 12.335]}}, {"type": "Feature", "properties": {"name": "Ecole", "amenity": "school"}, "geometry": {"type": "Point", "coordinates": [-1.6719, 12.3384]}}, {"type": "Feature", "properties": {"name": "Ecole primaire", "amenity": "school"}, "geometry": {"type": "Point", "coordinates": [-1.6905, 12.3214]}}, {"type": "Feature", "properties": {"name": "Ecole primaire", "amenity": "school"}, "geometry": {"type": "Point", "coordinates": [-2.0429, 12.4509]}}, {"type": "Feature", "properties": {"name": "Ecole primaire", "amenity": "school"}, "geometry": {"type": "Point", "coordinates": [-2.0441, 12.4447]}}, {"type": "Feature", "properties": {"name": "M\u00e9dersa", "amenity": "school"}, "geometry": {"type": "Point", "coordinates": [-2.0406, 12.4378]}}, {"type": "Feature", "properties": {"name": "Lyc\u00e9e communal", "amenity": "school"}, "geometry": {"type": "Point", "coordinates": [-2.0487, 12.4307]}}, {"type": "Feature", "properties": {"name": "Ecole primaire", "amenity": "school"}, "geometry": {"type": "Point", "coordinates": [-2.0241, 12.4355]}}, {"type": "Feature", "properties": {"name": "CEG", "amenity": "school"}, "geometry": {"type": "Point", "coordinates": [-1.7463, 12.2277]}}, {"type": "Feature", "properties": {"name": "M\u00e9dersa", "amenity": "school"}, "geometry": {"type": "Point", "coordinates": [-1.7196, 12.2726]}}, {"type": "Feature", "properties": {"name": "Ecole", "amenity": "school"}, "geometry": {"type": "Point", "coordinates": [-1.7069, 12.2726]}}, {"type": "Feature", "properties": {"name": "Ecole", "amenity": "school"}, "geometry": {"type": "Point", "coordinates": [-1.7032, 12.2701]}}, {"type": "Feature", "properties": {"name": "Ecole", "amenity": "school"}, "geometry": {"type": "Point", "coordinates": [-1.7047, 12.2708]}}, {"type": "Feature", "properties": {"name": "Ecole", "amenity": "school"}, "geometry": {"type": "Point", "coordinates": [-1.7295, 12.2577]}}, {"type": "Feature", "properties": {"name": "Ecole primaire", "amenity": "school"}, "geometry": {"type": "Point", "coordinates": [-1.7194, 12.2232]}}, {"type": "Feature", "properties": {"name": "Ecole primaire", "amenity": "school"}, "geometry": {"type": "Point", "coordinates": [-1.726, 12.2359]}}, {"type": "Feature", "properties": {"name": "Ecole primaire", "amenity": "school"}, "geometry": {"type": "Point", "coordinates": [-1.7554, 12.2347]}}, {"type": "Feature", "properties": {"name": "Ecole primaire", "amenity": "school"}, "geometry": {"type": "Point", "coordinates": [-2.0228, 12.4348]}}, {"type": "Feature", "properties": {"name": "CEG", "amenity": "school"}, "geometry": {"type": "Point", "coordinates": [-1.7234, 12.2757]}}, {"type": "Feature", "properties": {"name": "Ecole", "amenity": "school"}, "geometry": {"type": "Point", "coordinates": [-1.7216, 12.2797]}}, {"type": "Feature", "properties": {"name": "Ecole primaire", "amenity": "school"}, "geometry": {"type": "Point", "coordinates": [-1.7379, 12.2774]}}, {"type": "Feature", "properties": {"name": "CEG", "amenity": "school"}, "geometry": {"type": "Point", "coordinates": [-1.7276, 12.2717]}}, {"type": "Feature", "properties": {"name": "Ecole primaire", "amenity": "school"}, "geometry": {"type": "Point", "coordinates": [-1.7515, 12.3752]}}, {"type": "Feature", "properties": {"name": "Ecole primaire", "amenity": "school"}, "geometry": {"type": "Point", "coordinates": [-1.7484, 12.3779]}}, {"type": "Feature", "properties": {"name": "Ecole primaire", "amenity": "school"}, "geometry": {"type": "Point", "coordinates": [-1.7306, 12.401]}}, {"type": "Feature", "properties": {"name": "CEG", "amenity": "school"}, "geometry": {"type": "Point", "coordinates": [-1.7615, 12.3826]}}, {"type": "Feature", "properties": {"name": "Ecole primaire", "amenity": "school"}, "geometry": {"type": "Point", "coordinates": [-1.7625, 12.3036]}}, {"type": "Feature", "properties": {"name": "Ecole primaire", "amenity": "school"}, "geometry": {"type": "Point", "coordinates": [-1.7127, 12.3379]}}, {"type": "Feature", "properties": {"name": "M\u00e9dersa", "amenity": "school"}, "geometry": {"type": "Point", "coordinates": [-1.7227, 12.3733]}}, {"type": "Feature", "properties": {"name": "Ecole primaire", "amenity": "school"}, "geometry": {"type": "Point", "coordinates": [-1.7277, 12.3712]}}, {"type": "Feature", "properties": {"name": "M\u00e9dersa", "amenity": "school"}, "geometry": {"type": "Point", "coordinates": [-1.7124, 12.3623]}}, {"type": "Feature", "properties": {"name": "Ecole primaire", "amenity": "school"}, "geometry": {"type": "Point", "coordinates": [-1.7058, 12.3668]}}, {"type": "Feature", "properties": {"name": "CEG", "amenity": "school"}, "geometry": {"type": "Point", "coordinates": [-1.7634, 12.3031]}}, {"type": "Feature", "properties": {"name": "Ecole primaire", "amenity": "school"}, "geometry": {"type": "Point", "coordinates": [-1.7696, 12.2975]}}, {"type": "Feature", "properties": {"name": "Ecole primaire", "amenity": "school"}, "geometry": {"type": "Point", "coordinates": [-1.7651, 12.2974]}}, {"type": "Feature", "properties": {"name": "Ecole primaire", "amenity": "school"}, "geometry": {"type": "Point", "coordinates": [-1.7609, 12.3827]}}, {"type": "Feature", "properties": {"name": "Ecole primaire", "amenity": "school"}, "geometry": {"type": "Point", "coordinates": [-1.7001, 12.3285]}}, {"type": "Feature", "properties": {"name": "Ecole primaire", "amenity": "school"}, "geometry": {"type": "Point", "coordinates": [-1.7072, 12.3183]}}, {"type": "Feature", "properties": {"name": "CEG", "amenity": "school"}, "geometry": {"type": "Point", "coordinates": [-1.7033, 12.3167]}}, {"type": "Feature", "properties": {"name": "Ecole primaire", "amenity": "school"}, "geometry": {"type": "Point", "coordinates": [-1.7034, 12.3182]}}, {"type": "Feature", "properties": {"name": "Ecole (construction)", "amenity": "school"}, "geometry": {"type": "Point", "coordinates": [-1.7225, 12.2641]}}, {"type": "Feature", "properties": {"name": "Ecole", "amenity": "school"}, "geometry": {"type": "Point", "coordinates": [-1.7265, 12.2622]}}, {"type": "Feature", "properties": {"name": "Ecole primaire", "amenity": "school"}, "geometry": {"type": "Point", "coordinates": [-1.7977, 12.2954]}}, {"type": "Feature", "properties": {"name": "Ecole primaire", "amenity": "school"}, "geometry": {"type": "Point", "coordinates": [-1.7683, 12.2854]}}, {"type": "Feature", "properties": {"name": "Ecole primaire", "amenity": "school"}, "geometry": {"type": "Point", "coordinates": [-1.724, 12.2788]}}, {"type": "Feature", "properties": {"name": "Ecole primaire", "amenity": "school"}, "geometry": {"type": "Point", "coordinates": [-1.7815, 12.3258]}}, {"type": "Feature", "properties": {"name": "CEG?", "amenity": "school"}, "geometry": {"type": "Point", "coordinates": [-1.7803, 12.3264]}}, {"type": "Feature", "properties": {"name": "CEG", "amenity": "school"}, "geometry": {"type": "Point", "coordinates": [-1.759, 12.3398]}}, {"type": "Feature", "properties": {"name": "CEG", "amenity": "school"}, "geometry": {"type": "Point", "coordinates": [-1.737, 12.3406]}}, {"type": "Feature", "properties": {"name": "Ecole primaire", "amenity": "school"}, "geometry": {"type": "Point", "coordinates": [-1.7416, 12.3435]}}, {"type": "Feature", "properties": {"name": "Ecole primaire", "amenity": "school"}, "geometry": {"type": "Point", "coordinates": [-1.7592, 12.3479]}}, {"type": "Feature", "properties": {"name": "Ecole primaire", "amenity": "school"}, "geometry": {"type": "Point", "coordinates": [-1.7819, 12.3532]}}, {"type": "Feature", "properties": {"name": "Ecole primaire", "amenity": "school"}, "geometry": {"type": "Point", "coordinates": [-1.6549, 12.1959]}}, {"type": "Feature", "properties": {"name": "CEG", "amenity": "school"}, "geometry": {"type": "Point", "coordinates": [-1.7663, 12.2861]}}, {"type": "Feature", "properties": {"name": "Ecole primaire", "amenity": "school"}, "geometry": {"type": "Point", "coordinates": [-2.0776, 12.3718]}}, {"type": "Feature", "properties": {"name": "Ecole primaire", "amenity": "school"}, "geometry": {"type": "Point", "coordinates": [-2.0756, 12.3717]}}, {"type": "Feature", "properties": {"name": "CEG", "amenity": "school"}, "geometry": {"type": "Point", "coordinates": [-2.0758, 12.374]}}, {"type": "Feature", "properties": {"name": "Ecole primaire", "amenity": "school"}, "geometry": {"type": "Point", "coordinates": [-2.0605, 12.3905]}}, {"type": "Feature", "properties": {"name": "Ecole primaire", "amenity": "school"}, "geometry": {"type": "Point", "coordinates": [-2.0903, 12.3912]}}, {"type": "Feature", "properties": {"name": "Ecole primaire", "amenity": "school"}, "geometry": {"type": "Point", "coordinates": [-2.1058, 12.3773]}}, {"type": "Feature", "properties": {"name": "Ecole primaire", "amenity": "school"}, "geometry": {"type": "Point", "coordinates": [-2.0687, 12.4049]}}, {"type": "Feature", "properties": {"name": "Ecole primaire", "amenity": "school"}, "geometry": {"type": "Point", "coordinates": [-2.0413, 12.4138]}}, {"type": "Feature", "properties": {"name": "Ecole primaire", "amenity": "school"}, "geometry": {"type": "Point", "coordinates": [-1.6611, 12.3411]}}, {"type": "Feature", "properties": {"name": "Ecole primaire", "amenity": "school"}, "geometry": {"type": "Point", "coordinates": [-2.219, 12.3742]}}, {"type": "Feature", "properties": {"name": "Ecole primaire", "amenity": "school"}, "geometry": {"type": "Point", "coordinates": [-2.17, 12.378]}}, {"type": "Feature", "properties": {"name": "Ecole primaire", "amenity": "school"}, "geometry": {"type": "Point", "coordinates": [-2.2023, 12.3615]}}, {"type": "Feature", "properties": {"name": "Ecole primaire", "amenity": "school"}, "geometry": {"type": "Point", "coordinates": [-2.1829, 12.3578]}}, {"type": "Feature", "properties": {"name": "Ecole primaire", "amenity": "school"}, "geometry": {"type": "Point", "coordinates": [-2.2048, 12.3288]}}, {"type": "Feature", "properties": {"name": "CEG", "amenity": "school"}, "geometry": {"type": "Point", "coordinates": [-2.1852, 12.3382]}}, {"type": "Feature", "properties": {"name": "Ecole primaire", "amenity": "school"}, "geometry": {"type": "Point", "coordinates": [-2.1367, 12.465]}}, {"type": "Feature", "properties": {"name": "CEG", "amenity": "school"}, "geometry": {"type": "Point", "coordinates": [-2.0622, 12.4467]}}, {"type": "Feature", "properties": {"name": "Ecole primaire (A VERIFIER)", "amenity": "school"}, "geometry": {"type": "Point", "coordinates": [-2.1079, 12.4039]}}, {"type": "Feature", "properties": {"name": "Ecole primaire", "amenity": "school"}, "geometry": {"type": "Point", "coordinates": [-2.4196, 12.6147]}}, {"type": "Feature", "properties": {"name": "Coll\u00e8ge (Lyc\u00e9e Municipal)", "amenity": "school"}, "geometry": {"type": "Point", "coordinates": [-2.1708, 12.3404]}}, {"type": "Feature", "properties": {"name": "Ecole primaire", "amenity": "school"}, "geometry": {"type": "Point", "coordinates": [-2.1735, 12.3343]}}, {"type": "Feature", "properties": {"name": "Ecole (non fonctionnelle)", "amenity": "school"}, "geometry": {"type": "Point", "coordinates": [-2.1425, 12.3282]}}, {"type": "Feature", "properties": {"name": "Ecole primaire", "amenity": "school"}, "geometry": {"type": "Point", "coordinates": [-2.1391, 12.3235]}}, {"type": "Feature", "properties": {"name": "Ecole primaire", "amenity": "school"}, "geometry": {"type": "Point", "coordinates": [-2.1262, 12.328]}}, {"type": "Feature", "properties": {"name": "Ecole primaire", "amenity": "school"}, "geometry": {"type": "Point", "coordinates": [-2.1602, 12.3201]}}, {"type": "Feature", "properties": {"name": "Ecole primaire A", "amenity": "school"}, "geometry": {"type": "Point", "coordinates": [-2.1731, 12.3276]}}, {"type": "Feature", "properties": {"name": "Ecole primaire", "amenity": "school"}, "geometry": {"type": "Point", "coordinates": [-2.0522, 12.3777]}}, {"type": "Feature", "properties": {"name": "Ecole primaire", "amenity": "school"}, "geometry": {"type": "Point", "coordinates": [-2.2083, 12.3148]}}, {"type": "Feature", "properties": {"name": "Ecole primaire", "amenity": "school"}, "geometry": {"type": "Point", "coordinates": [-2.1794, 12.3144]}}, {"type": "Feature", "properties": {"name": "Ecole primaire", "amenity": "school"}, "geometry": {"type": "Point", "coordinates": [-2.1629, 12.3657]}}, {"type": "Feature", "properties": {"name": "Ecole primaire", "amenity": "school"}, "geometry": {"type": "Point", "coordinates": [-2.1471, 12.3674]}}, {"type": "Feature", "properties": {"name": "Ecole (projet)", "amenity": "school"}, "geometry": {"type": "Point", "coordinates": [-2.1577, 12.365]}}, {"type": "Feature", "properties": {"name": "Ecole primaire", "amenity": "school"}, "geometry": {"type": "Point", "coordinates": [-2.1369, 12.3896]}}, {"type": "Feature", "properties": {"name": "Ecole primaire", "amenity": "school"}, "geometry": {"type": "Point", "coordinates": [-2.158, 12.4195]}}, {"type": "Feature", "properties": {"name": "CEG", "amenity": "school"}, "geometry": {"type": "Point", "coordinates": [-2.1596, 12.4081]}}, {"type": "Feature", "properties": {"name": "CEG", "amenity": "school"}, "geometry": {"type": "Point", "coordinates": [-2.174, 12.3273]}}, {"type": "Feature", "properties": {"name": "Ecole primaire", "amenity": "school"}, "geometry": {"type": "Point", "coordinates": [-1.648, 12.2376]}}, {"type": "Feature", "properties": {"name": "Pr\u00e9scolaire", "amenity": "kindergarten"}, "geometry": {"type": "Point", "coordinates": [-1.656, 12.2431]}}, {"type": "Feature", "properties": {"name": "Ecole primaire", "amenity": "school"}, "geometry": {"type": "Point", "coordinates": [-1.6565, 12.2445]}}, {"type": "Feature", "properties": {"name": "Ecole", "amenity": "school"}, "geometry": {"type": "Point", "coordinates": [-1.673, 12.2457]}}, {"type": "Feature", "properties": {"name": "M\u00e9dersa", "amenity": "school"}, "geometry": {"type": "Point", "coordinates": [-1.6485, 12.245]}}, {"type": "Feature", "properties": {"name": "Ecole primaire", "amenity": "school"}, "geometry": {"type": "Point", "coordinates": [-2.1082, 12.4011]}}, {"type": "Feature", "properties": {"name": "CEG", "amenity": "school"}, "geometry": {"type": "Point", "coordinates": [-2.0961, 12.4062]}}, {"type": "Feature", "properties": {"name": "Ecole primaire", "amenity": "school"}, "geometry": {"type": "Point", "coordinates": [-2.0927, 12.395]}}, {"type": "Feature", "properties": {"name": "Ecole primaire", "amenity": "school"}, "geometry": {"type": "Point", "coordinates": [-2.0834, 12.4832]}}, {"type": "Feature", "properties": {"name": "Ecole primaire", "amenity": "school"}, "geometry": {"type": "Point", "coordinates": [-2.081, 12.4484]}}, {"type": "Feature", "properties": {"name": "CEG", "amenity": "school"}, "geometry": {"type": "Point", "coordinates": [-2.061, 12.4221]}}, {"type": "Feature", "properties": {"name": "Ecole", "amenity": "school"}, "geometry": {"type": "Point", "coordinates": [-1.7029, 12.2838]}}, {"type": "Feature", "properties": {"name": "CEG", "amenity": "school"}, "geometry": {"type": "Point", "coordinates": [-1.6816, 12.301]}}, {"type": "Feature", "properties": {"name": "Ecole primaire", "amenity": "school"}, "geometry": {"type": "Point", "coordinates": [-1.6815, 12.3]}}, {"type": "Feature", "properties": {"name": "Ecole primaire", "amenity": "school"}, "geometry": {"type": "Point", "coordinates": [-1.6734, 12.3188]}}, {"type": "Feature", "properties": {"name": "Ecole", "amenity": "school"}, "geometry": {"type": "Point", "coordinates": [-1.6774, 12.3286]}}, {"type": "Feature", "properties": {"name": "Ecole", "amenity": "school"}, "geometry": {"type": "Point", "coordinates": [-1.6649, 12.3439]}}, {"type": "Feature", "properties": {"name": "Ecole primaire", "amenity": "school"}, "geometry": {"type": "Point", "coordinates": [-2.1124, 12.4493]}}, {"type": "Feature", "properties": {"name": "Ecole primaire", "amenity": "school"}, "geometry": {"type": "Point", "coordinates": [-2.0471, 12.4751]}}, {"type": "Feature", "properties": {"name": "Ecole primaire", "amenity": "school"}, "geometry": {"type": "Point", "coordinates": [-2.0272, 12.4759]}}, {"type": "Feature", "properties": {"name": "Ecole primaire", "amenity": "school"}, "geometry": {"type": "Point", "coordinates": [-1.9775, 12.5018]}}, {"type": "Feature", "properties": {"name": "Ecole primaire", "amenity": "school"}, "geometry": {"type": "Point", "coordinates": [-1.961, 12.5034]}}, {"type": "Feature", "properties": {"name": "Ecole primaire", "amenity": "school"}, "geometry": {"type": "Point", "coordinates": [-1.9516, 12.5116]}}, {"type": "Feature", "properties": {"name": "Ecole primaire", "amenity": "school"}, "geometry": {"type": "Point", "coordinates": [-1.9406, 12.5277]}}, {"type": "Feature", "properties": {"name": "Ecole primaire", "amenity": "school"}, "geometry": {"type": "Point", "coordinates": [-2.0138, 12.4537]}}, {"type": "Feature", "properties": {"name": "Ecole primaire", "amenity": "school"}, "geometry": {"type": "Point", "coordinates": [-2.1844, 12.3229]}}, {"type": "Feature", "properties": {"name": "Ecole primaire", "amenity": "school"}, "geometry": {"type": "Point", "coordinates": [-2.0332, 12.4298]}}, {"type": "Feature", "properties": {"name": "Ecole primaire", "amenity": "school"}, "geometry": {"type": "Point", "coordinates": [-2.1891, 12.3163]}}, {"type": "Feature", "properties": {"name": "CEG", "amenity": "school"}, "geometry": {"type": "Point", "coordinates": [-2.1474, 12.3041]}}, {"type": "Feature", "properties": {"name": "Ecole primaire", "amenity": "school"}, "geometry": {"type": "Point", "coordinates": [-2.1574, 12.3039]}}, {"type": "Feature", "properties": {"name": "Ecole primaire", "amenity": "school"}, "geometry": {"type": "Point", "coordinates": [-2.1213, 12.3342]}}, {"type": "Feature", "properties": {"name": "M\u00e9dersa", "amenity": "school"}, "geometry": {"type": "Point", "coordinates": [-2.0297, 12.4356]}}, {"type": "Feature", "properties": {"name": "CEG", "amenity": "school"}, "geometry": {"type": "Point", "coordinates": [-2.0357, 12.4358]}}, {"type": "Feature", "properties": {"name": "Ecole primaire", "amenity": "school"}, "geometry": {"type": "Point", "coordinates": [-2.0363, 12.4357]}}, {"type": "Feature", "properties": {"name": "Ecole primaire", "amenity": "school"}, "geometry": {"type": "Point", "coordinates": [-2.0367, 12.4364]}}, {"type": "Feature", "properties": {"name": "Ecole primaire", "amenity": "school"}, "geometry": {"type": "Point", "coordinates": [-2.1946, 12.3013]}}, {"type": "Feature", "properties": {"name": "\u00c9cole GueswendBala", "amenity": "school"}, "geometry": {"type": "Point", "coordinates": [-1.5226, 12.3245]}}, {"type": "Feature", "properties": {"name": "Complexe scolaire Aurore", "amenity": "school"}, "geometry": {"type": "Point", "coordinates": [-1.5056, 12.3307]}}, {"type": "Feature", "properties": {"name": "Ecole Delwend\u00e9", "amenity": "school"}, "geometry": {"type": "Point", "coordinates": [-1.5143, 12.3378]}}, {"type": "Feature", "properties": {"name": "Lyc\u00e9e Z\u00e9maguida", "amenity": "school"}, "geometry": {"type": "Point", "coordinates": [-1.5096, 12.3403]}}, {"type": "Feature", "properties": {"name": "Lyc\u00e9e Girovy", "amenity": "school"}, "geometry": {"type": "Point", "coordinates": [-1.4996, 12.3506]}}, {"type": "Feature", "properties": {"name": "Lyc\u00e9e technique Amilcar cabral", "amenity": "school"}, "geometry": {"type": "Point", "coordinates": [-1.462, 12.3819]}}, {"type": "Feature", "properties": {"name": "Lyc\u00e9e de la jeunesse", "amenity": "school"}, "geometry": {"type": "Point", "coordinates": [-1.4764, 12.3824]}}, {"type": "Feature", "properties": {"name": "Ecole primaire", "amenity": "school"}, "geometry": {"type": "Point", "coordinates": [-2.3214, 13.4899]}}, {"type": "Feature", "properties": {"name": "Lyc\u00e9e Technique Charles Lavigerie", "amenity": "school"}, "geometry": {"type": "Point", "coordinates": [-1.5257, 12.3631]}}, {"type": "Feature", "properties": {"name": "Lyc\u00e9e Saint-Exup\u00e9ry de Ouagadougou", "amenity": "school"}, "geometry": {"type": "Point", "coordinates": [-1.5243, 12.3644]}}, {"type": "Feature", "properties": {"name": "\u00c9cole de l\u00b4amiti\u00e9", "amenity": "school"}, "geometry": {"type": "Point", "coordinates": [-1.4876, 12.3846]}}, {"type": "Feature", "properties": {"name": "Coll\u00e8ge Horizon International", "amenity": "school"}, "geometry": {"type": "Point", "coordinates": [-1.4882, 12.3795]}}, {"type": "Feature", "properties": {"name": "\u00c9cole Franco-arabe", "amenity": "school"}, "geometry": {"type": "Point", "coordinates": [-1.4877, 12.3805]}}, {"type": "Feature", "properties": {"name": "\u00c9cole Dassasgo C D", "amenity": "school"}, "geometry": {"type": "Point", "coordinates": [-1.4767, 12.3736]}}, {"type": "Feature", "properties": {"name": "Cours priv\u00e9 Marie Curie", "amenity": "school"}, "geometry": {"type": "Point", "coordinates": [-1.4626, 12.3697]}}, {"type": "Feature", "properties": {"name": "Groupe scolaire sainte Colette", "amenity": "school"}, "geometry": {"type": "Point", "coordinates": [-1.4588, 12.3742]}}, {"type": "Feature", "properties": {"name": "Juvenat", "amenity": "school"}, "geometry": {"type": "Point", "coordinates": [-1.4751, 12.3774]}}, {"type": "Feature", "properties": {"name": "Lyc\u00e9e Municipal Venegr\u00e9", "amenity": "school"}, "geometry": {"type": "Point", "coordinates": [-1.5608, 12.3379]}}, {"type": "Feature", "properties": {"name": "Lyc\u00e9e Mixte de Goughin", "amenity": "school"}, "geometry": {"type": "Point", "coordinates": [-1.5512, 12.3477]}}, {"type": "Feature", "properties": {"name": "\u00c9cole Cit\u00e9 An II", "amenity": "school"}, "geometry": {"type": "Point", "coordinates": [-1.5236, 12.3425]}}, {"type": "Feature", "properties": {"name": "\u00c9cole Kamsonghin Sud", "amenity": "school"}, "geometry": {"type": "Point", "coordinates": [-1.525, 12.3493]}}, {"type": "Feature", "properties": {"name": "\u00c9cole Cissin Nord", "amenity": "school"}, "geometry": {"type": "Point", "coordinates": [-1.5416, 12.3414]}}, {"type": "Feature", "properties": {"name": "Office Central des Examens et Concours", "amenity": "university"}, "geometry": {"type": "Point", "coordinates": [-1.5287, 12.3403]}}, {"type": "Feature", "properties": {"name": "Lyc\u00e9e Saint-Joseph", "amenity": "school"}, "geometry": {"type": "Point", "coordinates": [-1.5269, 12.3393]}}, {"type": "Feature", "properties": {"name": "Fondation Jean Paul II IPD AOS", "amenity": "school"}, "geometry": {"type": "Point", "coordinates": [-1.4674, 12.3922]}}, {"type": "Feature", "properties": {"name": "Ecole Waog Taaba", "amenity": "school"}, "geometry": {"type": "Point", "coordinates": [-1.5271, 12.3184]}}, {"type": "Feature", "properties": {"name": "Groupe scolaire la source", "amenity": "school"}, "geometry": {"type": "Point", "coordinates": [-1.4767, 12.4019]}}, {"type": "Feature", "properties": {"name": "ecole Wayalgin C", "amenity": "school"}, "geometry": {"type": "Point", "coordinates": [-1.4801, 12.3988]}}, {"type": "Feature", "properties": {"name": "\u00c9cole Nabonswend\u00e9", "amenity": "school"}, "geometry": {"type": "Point", "coordinates": [-1.4799, 12.3897]}}, {"type": "Feature", "properties": {"name": "\u00c9cole Dassasgo A E F", "amenity": "school"}, "geometry": {"type": "Point", "coordinates": [-1.4747, 12.3854]}}, {"type": "Feature", "properties": {"name": "Lyc\u00e9e des Nations", "amenity": "school"}, "geometry": {"type": "Point", "coordinates": [-1.535, 12.3176]}}, {"type": "Feature", "properties": {"name": "Lyc\u00e9e Universalis", "amenity": "school"}, "geometry": {"type": "Point", "coordinates": [-1.5349, 12.3188]}}, {"type": "Feature", "properties": {"name": "Ecole Naba Ambga", "amenity": "school"}, "geometry": {"type": "Point", "coordinates": [-1.512, 12.3186]}}, {"type": "Feature", "properties": {"name": "ISPP", "amenity": "college"}, "geometry": {"type": "Point", "coordinates": [-1.5244, 12.3295]}}, {"type": "Feature", "properties": {"name": "Lyc\u00e9e Newton Descartes", "amenity": "school"}, "geometry": {"type": "Point", "coordinates": [-1.4694, 12.3938]}}, {"type": "Feature", "properties": {"name": "Centre Islamique \"El Nour\"", "amenity": "school"}, "geometry": {"type": "Point", "coordinates": [-1.4605, 12.3821]}}, {"type": "Feature", "properties": {"name": "\u00c9cole Tabtinga", "amenity": "school"}, "geometry": {"type": "Point", "coordinates": [-1.4614, 12.3802]}}, {"type": "Feature", "properties": {"name": "\u00c9cole Kalgondin", "amenity": "school"}, "geometry": {"type": "Point", "coordinates": [-1.5054, 12.355]}}, {"type": "Feature", "properties": {"name": "Ecole", "amenity": "school"}, "geometry": {"type": "Point", "coordinates": [-1.4848, 12.2283]}}, {"type": "Feature", "properties": {"name": "Ecole", "amenity": "school"}, "geometry": {"type": "Point", "coordinates": [-1.4851, 12.2267]}}, {"type": "Feature", "properties": {"name": "Ecole primaire Kua D", "amenity": "school"}, "geometry": {"type": "Point", "coordinates": [-4.2465, 11.178]}}, {"type": "Feature", "properties": {"name": "Ecole primaire", "amenity": "school"}, "geometry": {"type": "Point", "coordinates": [-1.4739, 12.2277]}}, {"type": "Feature", "properties": {"name": "CEG", "amenity": "school"}, "geometry": {"type": "Point", "coordinates": [-1.5022, 12.1834]}}, {"type": "Feature", "properties": {"name": "Ecole Trame d\u00b4accueil", "amenity": "school"}, "geometry": {"type": "Point", "coordinates": [-1.4554, 12.3831]}}, {"type": "Feature", "properties": {"name": "Ecole primaire", "amenity": "school"}, "geometry": {"type": "Point", "coordinates": [-1.566, 11.8298]}}, {"type": "Feature", "properties": {"name": "\u00c9cole Internationale", "amenity": "school"}, "geometry": {"type": "Point", "coordinates": [-1.4894, 12.3801]}}, {"type": "Feature", "properties": {"name": "\u00c9cole Belemtiss\u00e9", "amenity": "school"}, "geometry": {"type": "Point", "coordinates": [-1.4923, 12.3841]}}, {"type": "Feature", "properties": {"name": "\u00c9cole zone du bois", "amenity": "school"}, "geometry": {"type": "Point", "coordinates": [-1.4926, 12.3858]}}, {"type": "Feature", "properties": {"name": "\u00c9cole nationale de sant\u00e9 animale", "amenity": "school"}, "geometry": {"type": "Point", "coordinates": [-1.497, 12.3851]}}, {"type": "Feature", "properties": {"name": "\u00c9cole Communale de Zogona", "amenity": "school"}, "geometry": {"type": "Point", "coordinates": [-1.4948, 12.3767]}}, {"type": "Feature", "properties": {"name": "\u00c9cole Wend La Mita", "amenity": "school"}, "geometry": {"type": "Point", "coordinates": [-1.4883, 12.3563]}}, {"type": "Feature", "properties": {"name": "Juvenat Saint Camille", "amenity": "school"}, "geometry": {"type": "Point", "coordinates": [-1.4863, 12.3606]}}, {"type": "Feature", "properties": {"name": "M\u00e9dersa", "amenity": "school"}, "geometry": {"type": "Point", "coordinates": [-1.5513, 11.8193]}}, {"type": "Feature", "properties": {"name": "ecole Elysa", "amenity": "school"}, "geometry": {"type": "Point", "coordinates": [-1.457, 12.389]}}, {"type": "Feature", "properties": {"name": "Ecole Famille", "amenity": "school"}, "geometry": {"type": "Point", "coordinates": [-1.4544, 12.3912]}}, {"type": "Feature", "properties": {"name": "Lyc\u00e9e William Ponty", "amenity": "school"}, "geometry": {"type": "Point", "coordinates": [-1.4619, 12.3959]}}, {"type": "Feature", "properties": {"name": "Ecole Anny Simone", "amenity": "school"}, "geometry": {"type": "Point", "coordinates": [-1.4625, 12.401]}}, {"type": "Feature", "properties": {"name": "EFEC", "amenity": "school"}, "geometry": {"type": "Point", "coordinates": [-1.4983, 12.3628]}}, {"type": "Feature", "properties": {"name": "\u00c9cole 1200 Logements", "amenity": "school"}, "geometry": {"type": "Point", "coordinates": [-1.4959, 12.362]}}, {"type": "Feature", "properties": {"name": "ISIG", "amenity": "university"}, "geometry": {"type": "Point", "coordinates": [-1.4984, 12.3602]}}, {"type": "Feature", "properties": {"name": "\u00c9cole du Secteur 29 Dagnoen ABC", "amenity": "school"}, "geometry": {"type": "Point", "coordinates": [-1.4925, 12.3638]}}, {"type": "Feature", "properties": {"name": "Noviciat", "amenity": "school"}, "geometry": {"type": "Point", "coordinates": [-1.4609, 12.384]}}, {"type": "Feature", "properties": {"name": "\u00c9cole Paspanga A et B", "amenity": "school"}, "geometry": {"type": "Point", "coordinates": [-1.5175, 12.3776]}}, {"type": "Feature", "properties": {"name": "Coll\u00e8ge de Formation Technique", "amenity": "school"}, "geometry": {"type": "Point", "coordinates": [-1.5166, 12.3756]}}, {"type": "Feature", "properties": {"name": "Lyc\u00e9e R\u00e9veil", "amenity": "school"}, "geometry": {"type": "Point", "coordinates": [-1.4989, 12.3714]}}, {"type": "Feature", "properties": {"name": "Institut des Sciences", "amenity": "school"}, "geometry": {"type": "Point", "coordinates": [-1.4806, 12.3573]}}, {"type": "Feature", "properties": {"name": "Grand S\u00e9minaire Saint jean-baptiste", "amenity": "university"}, "geometry": {"type": "Point", "coordinates": [-1.4765, 12.3955]}}, {"type": "Feature", "properties": {"name": "ENAREF", "amenity": "college"}, "geometry": {"type": "Point", "coordinates": [-1.4795, 12.3918]}}, {"type": "Feature", "properties": {"name": "Groupe Scolaire Saint Viateur", "amenity": "school"}, "geometry": {"type": "Point", "coordinates": [-1.4673, 12.3779]}}, {"type": "Feature", "properties": {"name": "Centre de Formation Biblique", "amenity": "school"}, "geometry": {"type": "Point", "coordinates": [-1.4592, 12.3844]}}, {"type": "Feature", "properties": {"name": "\u00c9cole Wemtenga", "amenity": "school"}, "geometry": {"type": "Point", "coordinates": [-1.4845, 12.3734]}}, {"type": "Feature", "properties": {"name": "Lyc\u00e9e Songtaaba", "amenity": "school"}, "geometry": {"type": "Point", "coordinates": [-1.5576, 12.359]}}, {"type": "Feature", "properties": {"name": "Lyc\u00e9e Priv\u00e9 Noureine", "amenity": "school"}, "geometry": {"type": "Point", "coordinates": [-1.5525, 12.3635]}}, {"type": "Feature", "properties": {"name": "\u00c9cole Kolg-Kom", "amenity": "school"}, "geometry": {"type": "Point", "coordinates": [-1.5724, 12.3849]}}, {"type": "Feature", "properties": {"name": "Ecole de Douane", "amenity": "school"}, "geometry": {"type": "Point", "coordinates": [-1.5201, 12.3753]}}, {"type": "Feature", "properties": {"name": "ecole primaire dapoya 2", "amenity": "school"}, "geometry": {"type": "Point", "coordinates": [-1.5188, 12.3817]}}, {"type": "Feature", "properties": {"name": "\u00c9cole Sacr\u00e9-C\u0153ur de Dapoya", "amenity": "school"}, "geometry": {"type": "Point", "coordinates": [-1.5231, 12.3828]}}, {"type": "Feature", "properties": {"name": "Garderie", "amenity": "school"}, "geometry": {"type": "Point", "coordinates": [-1.5271, 12.3818]}}, {"type": "Feature", "properties": {"name": "\u00c9cole Nemnin", "amenity": "school"}, "geometry": {"type": "Point", "coordinates": [-1.5324, 12.3816]}}, {"type": "Feature", "properties": {"name": "\u00c9cole Managbzanga", "amenity": "school"}, "geometry": {"type": "Point", "coordinates": [-1.5512, 12.3391]}}, {"type": "Feature", "properties": {"name": "Lyc\u00e9e Dimdolossom", "amenity": "school"}, "geometry": {"type": "Point", "coordinates": [-1.5357, 12.3776]}}, {"type": "Feature", "properties": {"name": "\u00c9cole larl\u00e9 A B", "amenity": "school"}, "geometry": {"type": "Point", "coordinates": [-1.5361, 12.3765]}}, {"type": "Feature", "properties": {"name": "Coll\u00e8ge des jeunes filles Notre Dame de Kologh-Naba", "amenity": "school"}, "geometry": {"type": "Point", "coordinates": [-1.5461, 12.3811]}}, {"type": "Feature", "properties": {"name": "\u00c9cole Kologh-Naba", "amenity": "school"}, "geometry": {"type": "Point", "coordinates": [-1.5487, 12.3811]}}, {"type": "Feature", "properties": {"name": "Lyc\u00e9e Parents d\u00b4\u00c9l\u00e8ves", "amenity": "school"}, "geometry": {"type": "Point", "coordinates": [-1.5696, 12.3404]}}, {"type": "Feature", "properties": {"name": "\u00c9cole Franco-Arabe", "amenity": "school"}, "geometry": {"type": "Point", "coordinates": [-1.5661, 12.3417]}}, {"type": "Feature", "properties": {"name": "\u00c9cole Ragnim Kamba", "amenity": "school"}, "geometry": {"type": "Point", "coordinates": [-1.5664, 12.3381]}}, {"type": "Feature", "properties": {"name": "Coll\u00e8ge Trikoni", "amenity": "school"}, "geometry": {"type": "Point", "coordinates": [-1.5418, 12.3252]}}, {"type": "Feature", "properties": {"name": "\u00c9cole Communale B de Ouidi", "amenity": "school"}, "geometry": {"type": "Point", "coordinates": [-1.5368, 12.3795]}}, {"type": "Feature", "properties": {"name": "Ecole Naba Wags\u00e9 B", "amenity": "school"}, "geometry": {"type": "Point", "coordinates": [-1.5534, 12.3796]}}, {"type": "Feature", "properties": {"name": "Institut Franco-Arabe \"Al Elmi\"", "amenity": "school"}, "geometry": {"type": "Point", "coordinates": [-1.5543, 12.3736]}}, {"type": "Feature", "properties": {"name": "Ecole Kossoghin", "amenity": "school"}, "geometry": {"type": "Point", "coordinates": [-1.5543, 12.4009]}}, {"type": "Feature", "properties": {"name": "\u00c9cole notre Dame de l\u00b4Esp\u00e9rance", "amenity": "school"}, "geometry": {"type": "Point", "coordinates": [-1.5695, 12.4015]}}, {"type": "Feature", "properties": {"name": "\u00c9cole Sakada", "amenity": "school"}, "geometry": {"type": "Point", "coordinates": [-1.5748, 12.4024]}}, {"type": "Feature", "properties": {"name": "\u00c9cole Galiyam", "amenity": "school"}, "geometry": {"type": "Point", "coordinates": [-1.5797, 12.4057]}}, {"type": "Feature", "properties": {"name": "\u00c9cole basywensida", "amenity": "school"}, "geometry": {"type": "Point", "coordinates": [-1.5765, 12.395]}}, {"type": "Feature", "properties": {"name": "\u00c9cole Tampouy A B", "amenity": "school"}, "geometry": {"type": "Point", "coordinates": [-1.5701, 12.3951]}}, {"type": "Feature", "properties": {"name": "Complexe scolaire Saint-Pierre de Kouka", "amenity": "school"}, "geometry": {"type": "Point", "coordinates": [-1.5551, 12.3567]}}, {"type": "Feature", "properties": {"name": "Lyc\u00e9e municipal", "amenity": "school"}, "geometry": {"type": "Point", "coordinates": [-1.5608, 12.3971]}}, {"type": "Feature", "properties": {"name": "\u00c9cole Tampouy E", "amenity": "school"}, "geometry": {"type": "Point", "coordinates": [-1.5642, 12.3952]}}, {"type": "Feature", "properties": {"name": "\u00c9cole Signonghin A B", "amenity": "school"}, "geometry": {"type": "Point", "coordinates": [-1.5764, 12.3932]}}, {"type": "Feature", "properties": {"name": "Centre Dominique Chauvet d\u00b4arcizas", "amenity": "school"}, "geometry": {"type": "Point", "coordinates": [-1.5866, 12.3974]}}, {"type": "Feature", "properties": {"name": "Coll\u00e8ge Nakem Zanga", "amenity": "school"}, "geometry": {"type": "Point", "coordinates": [-1.5813, 12.3958]}}, {"type": "Feature", "properties": {"name": "\u00c9cole de Signonghin C", "amenity": "school"}, "geometry": {"type": "Point", "coordinates": [-1.5849, 12.3964]}}, {"type": "Feature", "properties": {"name": "\u00c9cole Gounghin Nord B", "amenity": "school"}, "geometry": {"type": "Point", "coordinates": [-1.5501, 12.3579]}}, {"type": "Feature", "properties": {"name": "Ecole Gounghin Nord C", "amenity": "school"}, "geometry": {"type": "Point", "coordinates": [-1.5553, 12.3584]}}, {"type": "Feature", "properties": {"name": "Soeurs Aspirat", "amenity": "university"}, "geometry": {"type": "Point", "coordinates": [-1.5681, 12.3949]}},